data_abertura;hora_abertura;bairro;endereco;complemento;tipo_ocorrencia;quantidade_vitimas;descricao;tipo;latitude;longitude
03/08/2015;18:58;MADALENA;RUA JOSE OSORIO ;AO LADO DA SENA AUTOMOVEIS;COLISÃO;1;COLISÃO ENTRE UM CAMINHÃO E UMA BICICLETA;Ciclista;-8.0540563;-34.9132258
03/08/2015;22:57;CABANGA;AV SUL ;E/F AO SEMAFORO 260;COLISÃO COM CICLISTA;1;AUTO - BICICLETA;Ciclista;-8.0765392;-34.8936564
05/08/2015;15:46;AFOGADOS;RUA COSME VIANA 122;EM FRENTE AO POSTO SETTA / PROX AO POSTO DA SERTEL;COLISÃO;1;AUTO E BICICLETA;Ciclista;-8.0711164;-34.9094546
06/08/2015;07:13;ROSARINHO;RUA HIPOLITO BRAGA 181;POR TRÁS DA PRAÇA DO ROSARINHO EDF ALICE QUEIROS;COLISÃO;1;COLISÃO COM VITIMA ENTRE UM AUTO-PASSEIO E UMA BICICLETA;Ciclista;-8.031981;-34.8966524
06/08/2015;16:53;AREIAS;AV TAPAJOS ;EM FRENTE AO BODE DO NÓ;COLISÃO;1;COLISÃO MOTO E BICICLETA;Ciclista;-8.0933701;-34.9239063
07/08/2015;20:08;CASA AMARELA;AV NORTE ;EM FRENTE AO REI DA PICANHA;COLISÃO COM CICLISTA;1;COLISÃO A CICLISTA;Ciclista;-8.0242085;-34.9112758
30/08/2015;15:27;IPUTINGA;AV CAXANGA ;PROXIMO AO ELEVADO;COLISÃO COM CICLISTA;1; ;Ciclista;-8.0428276;-34.9346995
03/08/2015;21:23;VASCO DA GAMA;RUA VASCO DA GAMA ;ANFR AO SESI DO VASCO DA GAMA ;COLISÃO;1;AUTO E CINQUENTINHA;Ciclomotor;-8.0192857;-34.9213368
05/08/2015;08:41;IMBIRIBEIRA;AV MARECHAL MASCARENHAS DE MORAES 6369;EM FRENTE DA OFICINA MISTERAUTO;COLISÃO;2;COLC/V;Ciclomotor;-8.1419999;-34.9177533
07/08/2015;08:14;MADALENA;RUA BENFICA ;SEMAFORO Nº628-EM FRENTE AO EXTRA;COLISÃO;1;COLC/V;Ciclomotor;-8.0581009;-34.9054661
07/08/2015;15:57;CAXANGÁ;RUA MAURICIO DE NASSAU 61;POR TRAS DA EXPOSOÇÃO DE ANIMAIS;COLISÃO;1;CINQUENTINHA E AUTO;Ciclomotor;-8.0407826;-34.9269560
07/08/2015;15:57;CAXANGÁ;RUA MAURICIO DE NASSAU 61;POR TRAS DA EXPOSOÇÃO DE ANIMAIS;COLISÃO;1;CINQUENTINHA E AUTO;Ciclomotor;-8.1154221;-34.9578524
14/08/2015;15:09;SANTO AMARO;AV NORTE ;EM FRENTE AO POSTO ALVORADA SENTIDO SUBURBIO;COLISÃO;3;COLISÃO ENTRE DUAS 50CC;Ciclomotor;-8.0444211;-34.8812699
22/08/2015;08:04;BOMBA DO HEMETÉRIO;COR DO BARTOLOMEU 467;E/F AO SORVETÃO;COLISÃO;1;SEM VÍTIMAS;Ciclomotor;-8.0197558;-34.9112999
22/08/2015;18:57;JARDIM SÃO PAULO;AV LIBERDADE ;SEMAFORO 208;COLISÃO;1;AUTO E CINQUENTINHA;Ciclomotor;-8.0887601;-34.9512434
26/08/2015;20:58;SAN MARTIN;AV CONSUL VILARES FRAGOSO 368;PROX AOSPREDIOS AMARELO AO LADO DA CAVALERIA;COLISÃO;1;CELTA X CINQUENTINHA;Ciclomotor;-8.0658158;-34.9261916
27/08/2015;09:17;ESPINHEIRO;AV JOAO DE BARROS ;E/F AO POSTO PETROBRAS- SENTIDO GRAÇAS ;COLISÃO;1;COM UMA VÍTIMA( VEICULOS REMOVIDO PARAO ACOSTAMENTOS);Ciclomotor;-8.0442431;-34.8901454
30/08/2015;16:23;CASA AMARELA;RUA PAULA BATISTA ;PROXIMO A IGREJA DA HARMONIA;COLISÃO;1;C/V ENTRE AUTO E CIQUENTINHA;Ciclomotor;-8.0257901;-34.9155405
23/08/2015;11:59;VÁRZEA;AV CAXANGA;EM FRENTE AO RESIDENCIAL CAXAGA;COLISÃO;1;COLISAO ENTRE DUAS MOTOS COM VITIMA;Motocicleta;-8.0320766;-34.9544165
01/08/2015;08:37;PARNAMIRIM;EST DO ENCANAMENTO 236;CLUBE ALEMÃO EM FRENTE;COLISÃO;1;COLISÃO COM VITIMA ENTRE UM AUTO-PASSEIO E UMA MOTO;Motocicleta;-8.0325945;-34.9119303
01/08/2015;20:41;BONGI;RUA DELMIRO GOUVEIA ;EM FRENTE A CHESF (BONGI);COLISÃO;1;COLISÃO ENTRE MOTOCICLETA E AUTOMOVEL;Motocicleta;-8.0639302;-34.9298394
02/08/2015;16:16;TEJIPIÓ;AV DR JOSE RUFINO ;EM FRENTE AO QUARTEL BCOM.;COLISÃO;1;COLISÃO ENTRE UMA MOTOCICLETA E UM AUTOMOVEL;Motocicleta;-8.0908421;-34.9511254
02/08/2015;16:22;FUNDÃO;AV BEBERIBE 2666;EM FRENTE A GRAVATÁ MOVEIS / SENT SUB;COLISÃO;1;MOTO E AUTO;Motocicleta;-8.0153335;-34.8905316
03/08/2015;00:18;CABANGA;AV ANTONIO DE GOES ;AO LADO DO CABANGA SENTIDO CENTRO;ACID DE PERCURSO;1;MOTOQUEIRO CAIU NA VIA MAS JA FOI SOCORRIDO;Motocicleta;-8.0795626;-34.8919491
03/08/2015;08:30;CAMPO GRANDE;RUA ODORICO MENDES 429;APOS O SUPER MERCADO STYLO- SENTIDO ARRUDA;COLISÃO;1;COLISÃO ENTRE MOTO E CAMINÃO C/V;Motocicleta;-8.0363898;-34.8800898
03/08/2015;10:28;DOIS UNIDOS;AV HILDEBRANDO DE VASCONCELOS 316;E/F A PADARIA ESTRELANÇA ;COLISÃO;1;COLISÃO COM 1 VITIMA SOCORRIDO PELOS BOMBEIROS ;Motocicleta;-8.0031317;-34.9020919
03/08/2015;11:11;ILHA DO LEITE;RUA FRANCISCO ALVES ;AO LADO DO HOSPITAL HOPE E/F A OTICA DINIZ ;COLISÃO;2;COLISÃO COM 2 VITIMAS SOCORRIDOS PELOS SAMU ;Motocicleta;-8.0662832;-34.8959094
03/08/2015;12:31;AFOGADOS;AV MARECHAL MASCARENHAS DE MORAES ;DESCIDA DA PONTE MOTOCOLOMBÓ- SENTIDO AEROPORTO.;COLISÃO;1;01 AUTO 01 MOTO;Motocicleta;-8.0844369;-34.9069440
03/08/2015;13:39;DOIS UNIDOS;AV HILDEBRANDO DE VASCONCELOS 2552;E/F A PADARIA PAN ESTRELANÇA NA ENTRADA DE DOIS UNIDOS.;COLISÃO;1;01 AUTO 01 MOTO;Motocicleta;-8.0032432;-34.9019766
03/08/2015;14:28;PRADO;RUA SANTA EDWIRGES ;por tras da engefrio no canal em frente a igreja presbiteriana do prado;COLISÃO;2;AUTO E MOTO;Motocicleta;-8.0641971;-34.9121381
03/08/2015;15:42;CABANGA;RUA GENERAL ESTILAC LEAL 439;EM FRENTE AO QUARTEL DO CABANGA;COLISÃO;1;UM AUTO E UMA MOTO;Motocicleta;-8.0796357;-34.8964512
03/08/2015;17:16;ALTO JOSÉ DO PINHO;RUA MARQUES DE ABRANTES ;CRUZ COM A OLIVEIRA FONSECA (GIRADOR);COLISÃO;1;01 AUTO 01 MOTO;Motocicleta;-8.0303662;-34.8796928
03/08/2015;20:38;CAMPO GRANDE;RUA MEM DE SA ;CRUZAMENTO DO SEMAFORO 495 ;COLISÃO;1;AUTO E MOTO ;Motocicleta;-8.029681;-34.8897243
03/08/2015;22:49;BONGI;AV GENERAL SAN MARTIN ;CRUZAMENTO DO SEMAFORO 058;COLISÃO;1;AUTO E MOTO ;Motocicleta;-8.0605522;-34.9258053
04/08/2015;08:04;ENCRUZILHADA;RUA DR JOSE MARIA ;ESQUINA COM AV NORTE- POR TRAS DO HOSPITAL JORGE DE MEDEIROS;COLISÃO;1;COLISÃO ENTRE AUTO E MOTO C/V;Motocicleta;-8.036597;-34.8948902
04/08/2015;19:20;AREIAS;AV DR JOSE RUFINO ;ENF AO MERCADO DE AREAIAS \ ENF AO SENAI DE AREAIS ;COLISÃO;1;MOTO E AUTO ;Motocicleta;-8.0894692;-34.9337527
05/08/2015;07:00;BOA VIAGEM;RUA TOME GIBSON ;CRUZ COM A DOMINGOS FERREIRA E/F A ESCOLA MUNICIPAL OSWALDO LIMA FILHO ;COLISÃO;1;COLISÃO COM 1 VITIMA ;Motocicleta;-8.0987235;-34.8866612
05/08/2015;13:57;ARRUDA;AV BEBERIBE ;EM FRENTE AO CAMPO DO SANTA CRUZ EM FRENTE AO SEMAFORO 131;COLISÃO;1;COLISÃO ENTRE UMA MOTO E UM TAXI ;Motocicleta;-8.0267967;-34.8931628
05/08/2015;19:55;CASA AMARELA;AV NORTE ;E/F AO ARMAZÉM ACHA AQUI;COLISÃO;1;COLISÃO SEGUIDA DE CHOQUE -AUTO - MOTO;Motocicleta;-8.025073;-34.9081349
06/08/2015;jul/57;SAN MARTIN;AV GENERAL SAN MARTIN 2482;SENTIDO AV RECIFE AO LADO DO TERRENO DA JUSTIÇA FEDERAL;COLISÃO;2;COLISÃO COM 2 VITIMAS A ESPERA DO SAMU;Motocicleta;-8.0746166;-34.9301143
06/08/2015;08:12;PRADO;AV ENGENHEIRO ABDIAS DE CARVALHO ;PROXIMO A BIG CAR- SENTIDO CENTRO;COLISÃO;1;COLISÃO COM VÍTIMA ENTRE UM AUTO E UMA MOTO;Motocicleta;-8.0630366;-34.9331358
06/08/2015;15:14;PASSARINHO;EST DE PASSARINHO ;EM FRENTE AO TERMINAL DO PASSARINHO E ESCOLA AMAURI SANTIAGO;COLISÃO;1;COLISÃO ENTRE AUTO E MOTO COM VITIMA;Motocicleta;-7.9851203;-34.9159160
07/08/2015;13:38;IPSEP;RUA JAMAICA 80;PROX A FACUDADE DE BOA VIAGEM SENTIDO IMBIRIBEIRA- 50 METROS PROX DO SEMAFORO 007;COLISÃO;1;COLISÃO ENTRE DUAS MOTOS- C/V JA SOCORRIDA;Motocicleta;-8.10744;-34.9126652
07/08/2015;13:55;BOA VIAGEM;AV ENGENHEIRO DOMINGOS FERREIRA 3647;NA ENTRADA DO SHOPPING RECIFE;COLISÃO;1;COLISÃO ENTRE AUTO E MOTO CV ;Motocicleta;-8.1190612;-34.8976153
08/08/2015;10:20;COELHOS;RUA DR JOSE MARIANO 556;E//F AO LOJA MADECENTER ;COLISÃO;1;COLISÃO COM 1 VITIMA SOCORRIDO PELO SAMU ;Motocicleta;-8.0654785;-34.8869401
08/08/2015;15:30;BARRO;AV DR JOSE RUFINO 2319;PROX DA IGREJA DO BARRO;COLISÃO;1;AUTO E MOTO;Motocicleta;-8.0931895;-34.9435240
08/08/2015;15:40;CORDEIRO;AV CAXANGA ;E/F FACULDADE SANTA HELENA;COLISÃO;1;AUTO X MOTO;Motocicleta;-8.0525026;-34.9171619
08/08/2015;16:52;AFOGADOS;RUA COSME VIANA ;EM FRENTE AO POSTO SETTA E SEMAFORO 430;COLISÃO;1;COLISÃO COM VÍTIMA;Motocicleta;-8.0711696;-34.9094868
08/08/2015;21:07;TEJIPIÓ;RUA DOUTOR LEONIDAS CRAVO GAMA ;RUA DOUTOR SILVA FILHO PROX DO TERMINAL DO ONIBUS DE JARDIM SÃO PAULO E DA ESTAÇÃO DE TEJIPIO ;COLISÃO;F;CXAMINHÃO E MOTO ;Motocicleta;-8.0791948;-34.9029422
09/08/2015;07:59;PINA;AV ENGENHEIRO DOMINGOS FERREIRA 604; E/F A PROCURADORIA REGIONAL FEDERAL;COLISÃO;1;COM UMA VÍTIMA;Motocicleta;-8.0948466;-34.8858404
09/08/2015;19:29;BOA VIAGEM;RUA VISCONDE DE JEQUITINHONHA ;UMA QUADRA DO PARQUE DONA LINDU ;COLISÃO;1;AUTO E MOTO ;Motocicleta;-8.1394881;-34.9045837
09/08/2015;23:20;TORRE;RUA SOUZA BANDEIRA 362;PROX COLEGIO LUBIENSKA E CAIC DA TORRE;COLISÃO;1;AUTO E MOTO ;Motocicleta;-8.0486013;-34.9178016
10/08/2015;06:33;BOA VIAGEM;RUA ALMIRANTE NELSON FERNANDES 173;EM FRENTE AO SPORT CLUBE ALBERTO DUMONT;COLISÃO;2;COLS/V;Motocicleta;-8.1307949;-34.9090737
10/08/2015;14:56;AFOGADOS;RUA VINTE E UM DE ABRIL 681;EM FRENTE AO CLUBE DE CAPIM SOSAITE 4 LINHA;COLISÃO;1;UMA MOTO E UM AUTO;Motocicleta;-8.0764702;-34.9131694
10/08/2015;17:09;SANTO AMARO;AV GOVERNADOR AGAMENON MAGALHAES ;SENTIDO OLINDA ANTES DO CRUZAMENTO DA RUA DR- LEOPOLDO LINS;COLISÃO;1;AUTO E MOTO;Motocicleta;-8.0468644;-34.8911096
10/08/2015;19:26;ILHA DO LEITE;AV GOVERNADOR AGAMENON MAGALHAES 4575;EM FRENTE AO EMPRESARIAL NASSAU;COLISÃO;1;COLISÃO ENTRE AUTO E MOTO;Motocicleta;-8.0568873;-34.8977280
11/08/2015;21:10;TAMARINEIRA;RUA CONEGO BARATA ;CRUZ AV NORTE ;COLISÃO;1;AUTO - MOTO;Motocicleta;-8.0296332;-34.9004960
12/08/2015;07:43;ILHA DO RETIRO;RUA SPORT CLUBE DO RECIFE ;EM FRENTE AO SPORT;COLISÃO;1;COLISÃO COM VITIMA ENTRE UM AUTO E UMA MOTO;Motocicleta;-8.061471;-34.9027115
12/08/2015;11:37;BOA VIAGEM;RUA DOS NAVEGANTES ;CRUZAMENTO COM A ERNESTO DE PAULA SANTOS DE ESQUINA COM O HOTEL GOLDEN TULIP;COLISÃO;1;COLISÃO COM VITIMA ENTRE UM AUTO E UMA MOTO;Motocicleta;-8.1251126;-34.8979157
12/08/2015;17:35;IMBIRIBEIRA;AV MARECHAL MASCARENHAS DE MORAES ;EM FRENTE A FERREIRA COSTA;COLISÃO;2;COLISÃO ENTRE DUAS MOTOS SUB/CID;Motocicleta;-8.1114164;-34.9123836
12/08/2015;18:34;ENCRUZILHADA;AV BEBERIBE 205;ENF A AUTOESCOLA NOVAYORQUE \ SUB\CID;COLISÃO;1;AUTO E MOTO ;Motocicleta;-8.0165553;-34.8916072
12/08/2015;19:47;BEBERIBE;AV BEBERIBE ;ENFR AO MERCADO FERDÃO SENTIDO PERIMENTRAL ;COLISÃO;2;AUTO E MOTO ;Motocicleta;-8.0111955;-34.8891073
13/08/2015;08:26;IMBIRIBEIRA;AV MARECHAL MASCARENHAS DE MORAES ;EM FRENTE AO SHOPPING DO AUTOMÓVEL;COLISÃO;1;COLISÃO ENTRE AUTO E MOTO VEÍCULO SE EVADIU DO LOCAL SEM PRESTAR SOCORRO;Motocicleta;-8.1191196;-34.9137488
13/08/2015;10:43;BOA VISTA;AV CONDE DA BOA VISTA ;E/F AO POSTO DE GASOLINA BR ;COLISÃO;1;COLISÃO SEM VITIMAS ;Motocicleta;-8.0566775;-34.8927954
13/08/2015;13:41;JORDÃO;RUA DR ALVARO FERRAZ 25;ALTURA DO NÚMERO 25- E/F A OFICINA;COLISÃO;1;01 AUTO E 01 MOTO;Motocicleta;-8.1330306;-34.9374247
13/08/2015;14:17;JORDÃO;45;PROXIMO AO TERMINAL DO JORDÃO;COLISÃO;1;UMA MOTO E UM CARRO ( RUA DR ALVARO FERRAZ );Motocicleta;-8.1341219;-34.94376
13/08/2015;16:49;MADALENA;AV BEIRA RIO ;EM FRENTE O EDF QUATRO ESTAÇÃES Nº 879 SENTIDO CARREFOUR ;COLISÃO;2;AUTO E MOTO;Motocicleta;-8.0509596;-34.9050075
13/08/2015;17:26;BAIRRO DO RECIFE;RUA DO APOLO ;CRUZ COM BARBOSA LIMA- POR TRÁS DO BANCO DO BRASIL;COLISÃO;1;01 AUTO 01 MOTO;Motocicleta;-8.0619438;-34.8726118
13/08/2015;18:04;BOA VIAGEM;AV ANTONIO DE GOES ;EM FRENTE DEMITI;COLISÃO;1;ONIBUS E MOTO ;Motocicleta;-8.0849202;-34.8870206
13/08/2015;20:56;TORREÃO;RUA OTHON PARAISO ;PROXIMO A ACADEMIA DA CIDADE- POR TRAS DO HOPS UNICORDS;COLISÃO;1;COLISÃO ENTRE UMA AUTOMOVEL E UMA MOTOCICLETA;Motocicleta;-8.0405542;-34.8832735
13/08/2015;21:06;DOIS IRMÃOS;RUA DE APIPUCOS 1060;E/F AO 11 BPM;COLISÃO;1;AUTO - MOTO;Motocicleta;-8.0211209;-34.9342570
13/08/2015;23:21;ROSARINHO;AV NORTE ;E/F N 2154 E A PADARIA ROSARINHO;COLISÃO;2;AUTO - MOTO;Motocicleta;-8.0336489;-34.8963761
14/08/2015;08:54;ENCRUZILHADA;EST DE BELEM 115;EM FRENTE DO CARTORIO DA ENCRUZILHADA;COLISÃO;1;COLC/VSET SUB;Motocicleta;-8.0366554;-34.8900032
14/08/2015;09:02;NOVA DESCOBERTA;RUA NOVA DESCOBERTA ;EM FRENTE A FEIRA LIVRE DE NOVA DESCOBERTA;COLISÃO;1;COLISÃO ENTRE ÔNIBUS E MOTOCICLETA;Motocicleta;-8.0130069;-34.9251026
14/08/2015;09:32;IMBIRIBEIRA;RUA ITAJAI ;2º BANCO ITAU DA MASCARENHAS- SENTIDO PRAZERES- PRÓXIMO A ENTRADA DO IBURA;COLISÃO;1;COLISÃO ENTRE AUTO E MOTO COM VITIMA;Motocicleta;-8.1091275;-34.9135691
14/08/2015;17:08;MANGABEIRA;AV PROFESSOR JOSE DOS ANJOS ;EM FRENTE AO DENOX;COLISÃO;1;COLISÃO ENTRE AUTO E MOTO;Motocicleta;-8.0267701;-34.8984843
15/08/2015;00:52;BOA VIAGEM;AV BOA VIAGEM ;NA SAIÍDA DA ARMINDO MOURA // APÓS O HOSPITAL DA AERONAUTICA;COLISÃO;2;COLISÃO ENTRE UMA MOTO E UM AUTO;Motocicleta;-8.1508521;-34.9092507
15/08/2015;07:46;CORDEIRO;AV CAXANGA ;SUBIDA DO ELEVADO BRT SENTIDO CAMARAGIBE E EM FRENTE AO SUPERMERCADO ARCOIRIS;ACID DE PERCURSO;1;MOTOQUEIRO CAI SÓ E FICA ACIDENTADO- FAMILIA VAI BUSCAR A MOTO DO MESMO;Motocicleta;-8.0426842;-34.9352467
15/08/2015;12:22;CÓRREGO DO JENIPAPO;AV DA RECUPERACAO ;EM FRENTE AO BAR DO LAU;ATROPELAMENTO;1;MOTO ;Motocicleta;-7.9882042;-34.9334268
15/08/2015;13:02;SÃO JOSÉ;AV SUL ;LOGO APÓS DO VIADUTO JOAQUIM CARDORSO ;COLISÃO;1;COLISÃO ENTRE KOMBE E UMA MOTO ;Motocicleta;-8.0751955;-34.8901749
15/08/2015;18:28;JORDÃO;AV SANTOS DUMONT ;EM FRENTE A ENTRADA DA BASE AEREA;COLISÃO;1;COLISÃO ENTRE AUTO (VIATURA) E MOTOCICLETA;Motocicleta;-8.0373672;-34.8983422
16/08/2015;00:14;CASA FORTE;AV DEZESSETE DE AGOSTO ;PRÓX AO BAR REAL // EMPRESARIAL UBAIAS CENTER;COLISÃO;1;COLISÃO ENTRE DOIS AUTOS;Motocicleta;-8.0335507;-34.9226028
16/08/2015;08:31;DERBY;AV GOVERNADOR AGAMENON MAGALHAES ;;COLISÃO;1;COLISÃO ENTRE MOTO E AUTO;Motocicleta;-8.0552142;-34.8984789
16/08/2015;10:45;BOA VIAGEM;RUA ERNESTO DE PAULA SANTOS 1014;CRUZ COM A RUA AGENOR LOPES ;COLISÃO;2;COLISÃO COM 2 VITIMAS SOCORRIDO PELO SAMU ;Motocicleta;-8.1241673;-34.9058121
16/08/2015;16:47;JORDÃO;AV DONA CARENTINA ;TERMINAL DO ONIBUS DE JORDÃO ALTO;COLISÃO;1;01 AUTO E 01 MOTO;Motocicleta;-8.1340768;-34.9432182
17/08/2015;09:51;MADALENA;RUA ARLINDO GOUVEIA 100;AOLADO DO EDIFICIO SANTA MARIA EM FRENTE A PRAÇA DO INTERNACIONAL;COLISÃO;1;COLISÃO COM VITIMA ;Motocicleta;-8.0570333;-34.9040124
17/08/2015;09:54;BOA VIAGEM;RUA SA E SOUZA ;CRUZ COM A MARIO DE CASTRO E/F AO COLEGIO AMERICANO;COLISÃO;1;COLISÃO COM 1 VITIMA A ESPERA DO SAMU ;Motocicleta;-8.1356433;-34.9061850
17/08/2015;19:22;BOA VIAGEM;RUA COSMORAMA 408;APOS O CLUBE DAS AGUIAS;COLISÃO;1; ;Motocicleta;-8.148505;-34.9139392
17/08/2015;21:18;ALTO JOSÉ BONIFÁCIO;RUA ALTO JOSE BONIFACIO 1111;NA DECIDA DO ALTO JOSE BONIFACIO ;COLISÃO;1;DUAS MOTOS ;Motocicleta;-8.0178727;-34.9119437
18/08/2015;08:34;CAMPO GRANDE;AV GOVERNADOR AGAMENON MAGALHAES ;PRÓXIMO AO UNCORDIS;COLISÃO;1;AUTO E MOTO;Motocicleta;-8.041181;-34.8824072
18/08/2015;13:01;CAMPINA DO BARRETO;RUA ODORICO MENDES 65;COLEGIO JESUS CRUCIFICADO/// VITIMA SOCORRIDA PELO SAMU;COLISÃO;1;ENTRE UM AUTO E UMA MOTO;Motocicleta;-8.032406;-34.8812941
19/08/2015;07:20;IBURA;AV DOM HELDER CAMARA ;EM BAIXO DO SEMAFORO 518;COLISÃO;1;COLISÃO COM VITIMA ';Motocicleta;-8.1091328;-34.9352574
19/08/2015;12:06;TEJIPIÓ;AV DR JOSE RUFINO 603;AO LADO DA IGREJA CATOLICA DE TEJIPIO- ;COLISÃO;1;COLISÃO ENTRE AUTO E MOTO C/V;Motocicleta;-8.0861683;-34.9304402
19/08/2015;16:45;BOA VIAGEM;RUA RIBEIRO DE BRITO ;RUA RIBEIRO DE BRITO COM GENERAL AMERICANO FREIRE- EM FRENTE AO POSTO BR;COLISÃO;1;COLISÃO ENTRE AUTO E MOTO C/V;Motocicleta;-8.1229937;-34.9065068
19/08/2015;18:35;ENCRUZILHADA;AV BEBERIBE ;EM FRENTE A FRMACIA PREÇO BAIXO Nº 89;COLISÃO;2;UM AUTO E DUAS MOTOS;Motocicleta;-8.0114159;-34.8891691
19/08/2015;19:44;CORDEIRO;AV CAXANGA ;SENTIDO CIDADE EM FRENTE AO NUMERO 2647;COLISÃO;1;DOIS AUTO E UMA MOTO;Motocicleta;-8.0455684;-34.9300110
20/08/2015;00:46;CAMPO GRANDE;EST DE BELEM 457;NA ALTURA DA SECRETARIA DA FAZENDA // EM FRENTE AO EDIFÍCIO CAMUKA;COLISÃO;1;COLISÃO ENTRE UMA MOTO E UM AUTO COM VÍTIMA;Motocicleta;-8.0349397;-34.8873666
20/08/2015;05:38;BOA VISTA;RUA DO PRINCIPE ;CRUZAMENTO COM A RUA GERVÁSIO PIRES;COLISÃO;F;COLISÃO ENTRE ÔNIBUS E MOTOCICLETA;Motocicleta;-8.0573706;-34.8850840
20/08/2015;13:29;BOA VIAGEM;AV LINO JORDAO ;EM FRENTE AO COLÉGIO DOURADO ;COLISÃO;1;COLISÃO ENTRE UM CARRO E UMA MOTO ;Motocicleta;-8.1432637;-34.9153635
20/08/2015;17:26;DERBY;AV GOVERNADOR AGAMENON MAGALHAES 4318;EM FRENTE AO EMPRESARIAL RENATO DIAS / SENT BOA VIAGEM;COLISÃO;1;MOTO E AUTO;Motocicleta;-8.0620234;-34.8977709
21/08/2015;09:01;SAN MARTIN;RUA COMENDADOR FRANCO FERREIRA 16;CRUZAMENTO COM JOSÉ VELOSO- PROX A CAVALARIA;COLISÃO;1;COLISÃO ENTRE AUTO E MOTO- C/V;Motocicleta;-8.0658689;-34.9269480
21/08/2015;22:50;CAXANGÁ;AV CAXANGA ;PROX LOCALIZA SEMI NOVOS;COLISÃO;1;AUTO - MOTO;Motocicleta;-8.0521229;-34.9179947
21/08/2015;14:15;MADALENA;RUA BENFICA ;EM FRENTE AO BATALHÃO DE CHOQUE;COLISÃO;1;MOTO E AUTO;Motocicleta;-8.0601299;-34.9016896
21/08/2015;15:04;SANTO AMARO;AV CRUZ CABUGA ;NAS ÁREA DAS DOCAS DE DESCARGA DO SHOPPING;COLISÃO;1;01 AUTO 01 MOTO;Motocicleta;-8.0385676;-34.8722309
22/08/2015;13:31;VÁRZEA;RUA VALE DO SIRIJI 150;NO MEIO DA LADEIRA UR 7 VÁRZEA;COLISÃO;1;AUTO E MOTO;Motocicleta;-8.0374521;-34.9726045
22/08/2015;03:30;TOTÓ;RUA ONZE DE AGOSTO 573;EM FRENTE AO BIDU CRAUSE DO TOTÓ // EM FRENTE A COMPESA;COLISÃO;1;COLISAÕ ENTRE UMA MOTO E UM CARRO COM VÍTIMA;Motocicleta;-8.0794843;-34.9708906
22/08/2015;07:22;DERBY;AV GOVERNADOR AGAMENON MAGALHAES ;PRAÇA DO BERY- SENTIDO CONDE DA BOA VISTA;COLISÃO;1;COLISÃO ENTRE AUTO E MOTO COM VITIMA;Motocicleta;-8.0567332;-34.8980606
23/08/2015;05:43;BEBERIBE;AV BEBERIBE ;EM FRENTE A OPÇÃO MOVEIS PROXIMO A PRAÇA DA CONVENÇÃO;COLISÃO;2;COLISÃO ENTRE AUTO E UMA MOTOCICLETA;Motocicleta;-8.004542;-34.8955849
23/08/2015;10:21;CABANGA;RUA BITURI ;CRUZ COM A JOSE ESTELITA E/F A CASA ROSA ;COLISÃO;1;COLISÃO COM 1 VITIMA SOCORRIDA PELO SAMU ;Motocicleta;-8.079556;-34.8934203
23/08/2015;11:05;BOA VIAGEM;AV BOA VIAGEM 2682;CRUZ COM A PROFESSOR JOSE BRANDÃO E/ F AO ED MIRANTE ;COLISÃO;2;COLISÃO COM 2 VITIMAS SOCORRIDAS PELO SAMU ;Motocicleta;-8.1138594;-34.8912585
23/08/2015;14:01;AFOGADOS;RUA COSME VIANA 67;SEMÁFORO 426;COLISÃO;1;AUTO E MOTO;Motocicleta;-8.0757903;-34.9089932
23/08/2015;14:12;PARNAMIRIM;RUA JOAO TUDE DE MELO ;E/F A GUAIAMUM GIGANTE- SUBIDA DO VIADUTO DO CARREFOUR;COLISÃO;2;02 MOTOS;Motocicleta;-8.0371016;-34.9104309
23/08/2015;15:08;SAN MARTIN;AV CONSUL VILARES FRAGOSO 380;ESQ COM A RUA ITAPEMIRIM / AO LADO DA CAVALARIA;COLISÃO;1;MOTO E AUTO;Motocicleta;-8.0668674;-34.9239948
23/08/2015;15:11;ÁGUA FRIA;RUA LADEIRA DE PEDRA 185;NA FEIRA LIVRE DE ÁGUA FRIA- ESQUINA COM A RUA MONTE CARMELO.;COLISÃO;1;2 MOTOS;Motocicleta;-8.0188713;-34.8968804
23/08/2015;15:39;SÃO JOSÉ;AV DANTAS BARRETO ;EM FRENTE A SECRETARIA DA FAZENDA;COLISÃO;1;AUTO E MOTO;Motocicleta;-8.0616835;-34.8781157
23/08/2015;22:32;ÁGUA FRIA;RUA DAS MOCAS ;CRUZ COM A RUA DA REGENERAÇÃO;COLISÃO;2;AUTO - MOTO;Motocicleta;-8.0214423;-34.8865378
24/08/2015;15:03;AREIAS;AV DR JOSE RUFINO ;PROXIMO AO MISHOPING;COLISÃO;1;ENTRE UMA MOTO E UM AUTO;Motocicleta;-8.0913307;-34.9356598
25/08/2015;11:39;IMBIRIBEIRA;AV GENERAL MAC ARTHUR ;CRUZAMENTO DA RUA GENERAL MAC ARTUR COM MASCARENHAS DE MORAIS;COLISÃO;1;COLISAO COM VITIMA ENTRE MOTO E CAMINHAO;Motocicleta;-8.1088566;-34.9118686
25/08/2015;16:30;BOA VIAGEM;RUA BARAO DE SOUZA LEAO 1075;EM FRENTE A ORTOBOM;COLISÃO;1;AUTO E MOTO;Motocicleta;-8.1325646;-34.9093634
25/08/2015;18:54;CASA AMARELA;RUA ALTO JOSE BONIFACIO ;PROXIMO A QUADRA DE ESPORTES- PROXIMO A POSTO DE POLICIAMENTO DO ALTO JOSÉ BONIFÁCIO;COLISÃO;1; ;Motocicleta;-8.0169457;-34.9128261
25/08/2015;23:06;DERBY;AV GOVERNADOR AGAMENON MAGALHAES ;CRUZ RUA BANDEIRA FILHO- PROX MAC DONALD ;COLISÃO;1;AUTO - MOTO;Motocicleta;-8.0512943;-34.8952281
26/08/2015;07:29;CABANGA;RUA GENERAL ESTILAC LEAL ;EN FRENTE AO 7 DESUPI;COLISÃO;1;COLISÃO COM VÍTIMA;Motocicleta;-8.0799171;-34.8963922
26/08/2015;08:52;PINA;AV ANTONIO DE GOES ;SAÍDA DO TÚNEL;COLISÃO;1;COLISÃO COM VÍTIMA ENTRE AUTO E MOTOCICLETA;Motocicleta;-8.0838315;-34.8880720
26/08/2015;09:05;CABANGA;RUA BITURI ;E/F A COMPESA ;COLISÃO;1;COLISÃO COM 1 VITIMA SOCORRIDO PELO SAMU ;Motocicleta;-8.078908;-34.8936403
26/08/2015;14:52;MADALENA;RUA JOSE OSORIO 970;FINAL DA JOSE OSORIO;COLISÃO;2;DUAS MOTOS;Motocicleta;-8.0540987;-34.9137568
26/08/2015;15:06;IBURA;RUA DOIS ;NA SUBIDA DA LADEIRA DO IBURA;COLISÃO;1;AUTO E MOTO;Motocicleta;-8.1116023;-34.9376822
27/08/2015;06:54;TAMARINEIRA;RUA CONEGO BARATA ;PROX A FERREIRA COSTA ;COLISÃO;2;COLISÃO COM 2 VITIMAS GM HELIO QTH;Motocicleta;-8.0314924;-34.9023789
27/08/2015;11:17;DERBY;AV GOVERNADOR CARLOS DE LIMA CAVALCANTI ;EM FRENTE AO INTERDATA;COLISÃO;1;COLISÃO ENTRE AUTO E MOTO COM VITIMA;Motocicleta;-8.0561862;-34.8961669
27/08/2015;22:16;CORDEIRO;RUA MARIA QUITERIA 140;PROX A DELEGACIA ;COLISÃO;1;DUAS MOTOS ;Motocicleta;-8.0446973;-34.9286297
28/08/2015;06:59;IMBIRIBEIRA;AV MARECHAL MASCARENHAS DE MORAES ;EM FRENTE À VENEZA CAMINHÕES E A YAMASAKI;COLISÃO;1;COLISÃO ENVOLVENDO AUTO E MOTO COM LESÕES;Motocicleta;-8.0947032;-34.9092293
28/08/2015;07:53;CASA AMARELA;RUA PAULA BATISTA ;E/F AO BOMPREÇO;COLISÃO;1;MOTOX AUTO;Motocicleta;-8.0277462;-34.9166603
28/08/2015;08:00;MADALENA;RUA BENFICA 715;EM FRENTE AO EXTRA BENFICA;COLISÃO;1;COLISÃO ENTRE UM AUTO E UMA MOTOCICLETA COM VÍTIMA- LOCAL DESCARACTERIZADO PELOS CONDUTORES;Motocicleta;-8.0584223;-34.9040258
28/08/2015;11:17;BOA VIAGEM;AV ENGENHEIRO DOMINGOS FERREIRA ;EM FRENTE AO PAULO MIRANDA EMPREENDIMENTOS;COLISÃO;1;COLISÃO ENTRE UM CAMINHÃO E UMA MOTOCICLETA;Motocicleta;-8.1090717;-34.8915750
28/08/2015;14:37;SANTO AMARO;RUA TREZE DE MAIO ;EM FRENTE AO SESC;COLISÃO;1;MOTO E AUTO / SERGIO LUIS BT 05 NO QTH;Motocicleta;-8.0498681;-34.8819378
28/08/2015;14:44;SÃO JOSÉ;RUA IMPERIAL ;CRUZAMENTO COM RUA BONSUCESSO;COLISÃO;1;COLISÃO ENTRE AUTO E MOTOCICLETA COM VÍTIMA;Motocicleta;-8.0752645;-34.8922455
28/08/2015;15:57;CORDEIRO;RUA GOMES TABORDA ;SEGUNDA RUA A ESQUERDA APÓS VAREJÃO KENEDY ;COLISÃO;1;COLISÃO ENTRE UM VEICULO E UMA MOTO ;Motocicleta;-8.0563933;-34.9204141
28/08/2015;21:02;SANTO AMARO;AV GOVERNADOR AGAMENON MAGALHAES ;ENCIMA DA PONTE SENTIDO OLINDA ;COLISÃO;1;TRES AUTO E UMA MOTO ;Motocicleta;-8.0363898;-34.8714638
28/08/2015;23:59;PARNAMIRIM;RUA SEBASTIAO MALTA ARCOVERDE 129;ANTES DO SHOPPÍNG PARNAMIRIM ;COLISÃO;1;ENTRE UM AUTO E UMA MOTO COM VITIMA;Motocicleta;-8.0335347;-34.9078372
29/08/2015;12:29;IMBIRIBEIRA;AV MARECHAL MASCARENHAS DE MORAES ;SENTIDO AFOGADOS NO SEMÁFORO 534;COLISÃO;1;AUTO E MOTO;Motocicleta;-8.1099188;-34.9121690
29/08/2015;15:25;MANGABEIRA;RUA DA MANGABEIRA 60;EM FRENTE A DESCIDA DO ALTO JOSE DO PINHO;COLISÃO;2;TRES CARROS E DUAS MOTOS;Motocicleta;-8.0249216;-34.9044710
29/08/2015;15:33;SAN MARTIN;AV CAXANGA ;NO CRUZAMNETO DA GENERAL SAN MARTIN COM A CAXANGA SENTIDO SUBURBIO;COLISÃO;1;2 MOTOS E UM AUTO;Motocicleta;-8.0503488;-34.9209881
30/08/2015;17:19;CABANGA;VIADUTO CAPITAO TEMUDO ;ALÇA DE ACESSO AO LARGO DO CABANGA;COLISÃO;1;MOTOCICLISTA COLIDIU COM A MURETA DO VIADUTO;Motocicleta;-8.077875;-34.8925728
30/08/2015;18:51;LINHA DO TIRO;RUA JOSE ARMANDO MACHADO ;RUA JOSE AMARINO DOS REIS N- 1015 APOIS ASSENBLEIA DE DEUS ;COLISÃO;1;AUTO E MOTO ;Motocicleta;-8.1488993;-34.9162205
31/08/2015;08:32;BEBERIBE;AV BEBERIBE ;CRUZAMENTO COM RUA JERÔNIMO GUEIROS;COLISÃO;1;COLISÃO ENTRE AUTO E MOTO;Motocicleta;-8.033224;-34.8918486
31/08/2015;09:58;CORDEIRO;AV CAXANGA 2925;LADO OPOSTO AO EXTRA;;1;COLISÃO AUTO E MOTO.;Motocicleta;-8.0436562;-34.9334764
31/08/2015;18:20;BOA VIAGEM;RUA SARGENTO SILVINO DE MACEDO ;CRUZAMENTO COM A RUA JOSÉ DA SILVA LUCENA- EM FRENTE A EMPRESA LACOMEX;COLISÃO;1;C/V ENTRE KOMBI E MOTO;Motocicleta;-8.114571;-34.9072123
31/08/2015;09:41;BOA VIAGEM;AV CONSELHEIRO AGUIAR ;NO SEMAFORO Nº115;COLISÃO;1;COLCOM VITMA;Outros;-8.1190107;-34.8974919
05/08/2015;17:17;ENCRUZILHADA;AV NORTE ;EM FRENTE AO EXTRA BOM / ESQ COM A RUA FERNANDO SERRA;COLISÃO;1;COLISÃO E ATROPOLAMENTO / AUTO E MOTO / SUB ANDRADE MT 05 NO QTH;Pedestre;-8.0370033;-34.8944047
06/08/2015;18:18;CASA AMARELA;AV NORTE ;DE FRENTE AO NÚCLEO- ANTES DA ENTRADA DO MORRO DA CONCEIÇÃO;ATROPELAMENTO;F;ATROPELAMENTO ENVOLVENDO MOTOCICLETA E PEDESTRE COM VITIMA FATAL;Pedestre;-8.0216508;-34.9163398
08/08/2015;19:15;IBURA;AV ENGENHO SERRA VERDE 570;ENF AO ARMAZEMESQ DA CONSTRUÇÃO;ATROPELAMENTO;1;AUTO PASSEIO;Pedestre;-8.1125045;-34.9518268
11/08/2015;16:36;BOMBA DO HEMETÉRIO;RUA BOMBA DO HEMETERIO ;FEIRA DA RODINHA;ATROPELAMENTO;2;ATROPELAMENTO COM 2 VITIMAS;Pedestre;-8.0218938;-34.9002546
11/08/2015;19:49;TORRÕES;RUA OCIDENTAL 339;PROX AO TERMINAL SITIO DAS PALMEIRAS;ATROPELAMENTO;1;ENTRE UM PEDESTRE E UMA CINQUENTINHA;Pedestre;-8.0530099;-34.9373764
12/08/2015;08:54;IMBIRIBEIRA;AV MARECHAL MASCARENHAS DE MORAES ;EM FRENTE A MEIRA LINS;ATROPELAMENTO;1;ATROPELAMENTO DE PEDESTRE;Pedestre;-8.0925788;-34.9087733
12/08/2015;16:50;IMBIRIBEIRA;AV MARECHAL MASCARENHAS DE MORAES ;ATROPELAMENTO EM FRENTE AO AEROPORTO NO SENTIDO CENTRO;ATROPELAMENTO;1;;Pedestre;-8.1276989;-34.9156451
14/08/2015;07:57;SANTO AMARO;AV GOVERNADOR AGAMENON MAGALHAES ;PROXIMO A FABRICA TACARUNA;COLISÃO;1;ATROLELAMENTO;Pedestre;-8.037006;-34.8727083
21/08/2015;11:49;MADALENA;AV CAXANGA ;EM FRENTE AO BANCO ITAÚ SENTIDO CENTRO;ATROPELAMENTO;1;ATROPELAMENTO DE MOTO EM PEDESTRE- JÁ SENDO SOCORRIDO PELO SAMU;Pedestre;-8.0530418;-34.9165463
24/08/2015;16:01;MACAXEIRA;AV NORTE 31;RESTAURANTE BOIZZÃO / PARQUE DA MACAXEIRA - SENTIDO SUB;ATROPELAMENTO;1;ATROPELAMENTO ENVOLVENDO PEDESTRE NO AGUARDO DE ATENDIMENTO;Pedestre;-8.016125;-34.9304670
25/08/2015;13:55;ENCRUZILHADA;RUA PEDRO ALVES ;POR TRAS DO MERCARDO DA ENCRUZILHADA- NA PRAÇA DOS CAMINHONEIROS;ATROPELAMENTO;1; AUTO E CICLISTA- VITIMA JA SOCORRIDA PELO SAMU;Pedestre;-8.0361348;-34.8919988
27/08/2015;13:20;MADALENA;AV VISCONDE DE ALBUQUERQUE ;EM FRENTE A CASA DAS BATERIAS / BOMPREÇO DA BEMFICA;ATROPELAMENTO;1;VIATURA DO SAMU ATROPELOU O PEDESTRE;Pedestre;-8.0579682;-34.9071640
28/08/2015;14:33;BEBERIBE;AV BEBERIBE 423;EM FRENTE A OPÇÃO MOVEIS;ATROPELAMENTO;1;ATROPELAMENTO;Pedestre;-8.004635;-34.8956841
29/08/2015;08:45;IPUTINGA;AV CAXANGA ;EMBAIXO DO VIADUTO DA BR 101 SENTIDO CENTRO;ATROPELAMENTO;1;ATROPELAMENTO DE PEDESTRE NA FAIXA DO BRT- O VEÍCULO SE ENCONTRA AO LADO DA IPUTINGA AUTO MOVEIS;Pedestre;-8.0388677;-34.9417832
30/08/2015;08:59;BEBERIBE;AV BEBERIBE ;EM FRENTE AO COLÉFIO 90 GRAUS;ATROPELAMENTO;1;ATROPELAMENTO AUTO X PEDESTRE;Pedestre;-8.0059152;-34.8922563
31/08/2015;09:41;BREJO DA GUABIRABA;AV VEREADOR OTACILIO AZEVEDO ;EM FRENTE A FABRICA DA KINITOS;ATROPELAMENTO;1;ATROPELAMENTO UMA MOTO COM UMA CRIANÇA;Pedestre;-7.9939043;-34.9274951
31/08/2015;09:41;BOA VISTA;AV CONDE DA BOA VISTA 1126;E/F INÊS NOIVOS- SENTIDO CIDADE;ATROPELAMENTO;1;;Pedestre;-8.0572538;-34.8907113
31/08/2015;09:47;CAXANGÁ;AV CAXANGA 2414;EM FRENTE DA AUTO CULTURA;ATROPELAMENTO;1;ATROPELAMENTO COM UMA VITIMA;Pedestre;-8.0544706;-34.9134350
01/12/2015;14:45;TORRÕES;RUA DO FORTE 963;PROX AO CAMPO DO 15;COLISÃO;1;DOIS AUTOS;Automóvel;-8.0546565;-34.9295953
01/12/2015;18:22;ESPINHEIRO;RUA AFONSO BATISTA 78;COLADO A DELEGACIA DO ESPINHEIRO;COLISÃO;1;AUTO E MOTO;Automóvel;-8.0408384;-34.8909339
05/12/2015;21:58;CAMPO GRANDE;RUA SAO CAETANO 318;PROX AO CLUBE DAS PAES E O SUPER MERCADO STYLLUS;COLISÃO;2;;Automóvel;-8.0342598;-34.8795131
06/12/2015;01:00;BAIRRO DO RECIFE;AV ALFREDO LISBOA ;FICA DO LADO DO ESTACIONAMENTO DO PAÇO ALFANDEGA;COLISÃO;3;4 CARROS - CAMINHAO;Automóvel;-8.0660415;-34.8729739
06/12/2015;11:18;SAN MARTIN;RUA VISCONDE PARNAIBA 435;RUA POR TRÁS DO QUARTEL DO BPTRAN;COLISÃO;1;COLISÃO COM VITIMAS;Automóvel;-8.0685949;-34.9301867
09/12/2015;00:01;TEJIPIÓ;AV DR JOSE RUFINO ;PRÓXIMO AO ARMAZEM LITORAL ;CHOQUE;1;;Automóvel;-8.0900242;-34.9531518
09/12/2015;08:00;MACAXEIRA;AV NORTE ; PROX A ANTIGA FABRICA DA MACAXEIRA ;COLISÃO;1;COLISÃO COM 1 VITIMA SOCORRIDA PELO SAMU ;Automóvel;-8.0142738;-34.9315345
13/12/2015;17:09;CASA AMARELA;AV PEDRO ALLAIN 152;;COLISÃO;1;DOIS AUTOS;Automóvel;-8.0221481;-34.9178828
14/12/2015;00:17;ÁGUA FRIA;RUA SAO SEBASTIAO 166;EM FRENTE AO CONSULTORIO DE ONDONTOLOGIA DR DUTRA;COLISÃO;2;DOIS AUTO ;Automóvel;-8.0230618;-34.8985447
14/12/2015;11:53;BONGI;RUA ISAAC MARKMAN ;NO CRUZAMENTO ENTRE ACELPE DO BONGI E A SECRETARIA DE SAUDE;COLISÃO;1;COLISÃO COM VITIMA;Automóvel;-8.0640657;-34.9220932
17/12/2015;22:56;ESTÂNCIA;AV RECIFE XX;EM FRENTE AO LABORATORIO CERPE;COLISÃO;1;DOIS AUTO X CAMINHAO;Automóvel;-8.083542;-34.9327442
25/12/2015;04:01;IMBIRIBEIRA;AV MARECHAL MASCARENHAS DE MORAES ;EM FRENTE O GRILO DECORAÇOES- NO SEMAFORO 396;COLISÃO;2;COLISAO ENTRE DOIS AUTO;Automóvel;-8.0910758;-34.908375
25/12/2015;06:51;SÃO JOSÉ;C SANTA RITA ;NA FRENTE DO TERMINAL DO CAIS DE SANTA RITA;COLISÃO;1;COLISÃO COM VÍTIMA;Automóvel;-8.0686786;-34.8750123
25/12/2015;06:54;IMBIRIBEIRA;AV MARECHAL MASCARENHAS DE MORAES ;E/F DA GRILO FLORES S/T CID ;COLISÃO;2;COLISAO DE DOIS AUTOS COM UMA VITIMA ;Automóvel;-8.0935082;-34.9091434
25/12/2015;07:42;PARNAMIRIM;RUA PADRE ROMA 489;E/F AO FITEIRO BAR ;CHOQUE;1;CONDUTOR COLIDIU CONTRA UM POSTE VITIMA SOCORRIDA OBS POSTE CAIDO NO MEIO DA VIA ;Automóvel;-8.0325813;-34.9071532
29/12/2015;07:44;BAIRRO DO RECIFE;RUA MADRE DEUS ;E/F A IGREJA MADRE DE DEUS ;CHOQUE;1;TIJOLO CAIU EM CIMA DO VEICULO COM VITIMA A ESPERA DO SAMU ;Automóvel;-8.0642741;-34.8735961
30/12/2015;15:29;CORDEIRO;AV CAXANGA ;EM FRENTE AO CERPE SENTIDO CIDADE;COLISÃO;1;COLISAO ENTRE DOIS AUTOS;Automóvel;-8.0484977;-34.9248505
01/12/2015;20:20;SANTO AMARO;AV GOVERNADOR AGAMENON MAGALHAES ;EM FRENTE A UNICORDS SENTIDO OLINDA;ATROPELAMENTO;1;;Pedestre;-8.0411332;-34.8822838
02/12/2015;14:42;COELHOS;RUA DOS COELHOS 450;EM FRENTE AO IMIP;ATROPELAMENTO;1;ENVOLVENDO UMA MOTO E UM PEDESTRE;Pedestre;-8.0675194;-34.890305
03/12/2015;09:47;JOANA BEZERRA;AV DES GUERRA BARRETO ;AO LADO DO FORUM ENTRADA NORTE;ATROPELAMENTO;1;;Pedestre;-8.071467;-34.892031
05/12/2015;21:14;MANGUEIRA;RUA VINTE E UM DE ABRIL 1384;AO LADO DA PIZZARIA PAULISTA;ATROPELAMENTO;1;ATROPELAMENTO MOTO E PEDESTRE;Pedestre;-8.0750282;-34.9188074
06/12/2015;07:08;ÁGUA FRIA;RUA LADEIRA DE PEDRA 710;EM FRENTE A ESCOLA ROTARY;ATROPELAMENTO;1;ATROPELAMENTO MOTO E PEDESTRE;Pedestre;-8.0146536;-34.9022716
06/12/2015;16:55;IPSEP;AV SALDANHA MARINHO 83;PROX A DELEGACIA DO IPSEP;ATROPELAMENTO;1;;Pedestre;-8.1154473;-34.9205536
10/12/2015;17:06;NOVA DESCOBERTA;RUA NOVA DESCOBERTA ;COM AV NORTE NO SEMAFORO 065;ATROPELAMENTO;1;ATROPELAMENTO COM UMA VITIMA ;Pedestre;-8.019777;-34.9266207
11/12/2015;07:53;MADALENA;RUA REAL DA TORRE ;ANTES DO MERCADO DA MADALENA;ATROPELAMENTO;1;ATROPELAMENTO COM UMA VITIMA ;Pedestre;-8.0552354;-34.9089557
13/12/2015;18:52;BOA VISTA;PTE DUARTE COELHO ;;ATROPELAMENTO;1;TAXI;Pedestre;-8.0623209;-34.8811519
16/12/2015;15:36;CASA AMARELA;EST DO ARRAIAL ;EM FRENTE AO BANCO DO BRASIL;ATROPELAMENTO;1;ATROLPELAMENTO ENVOLVENDO MOTO E PEDESTRE;Pedestre;-8.0266586;-34.9165785
18/12/2015;07:18;SANTO AMARO;AV CRUZ CABUGA ;EM FRENTE AO AO HOSPITAL DO CÂNCER;ATROPELAMENTO;1;ATROPELAMENTO ENVOLVENDO ÔNIBUS E PEDESTRE;Pedestre;-8.0417679;-34.8728827
20/12/2015;22:17;CAMPO GRANDE;AV PROFESSOR JOSE DOS ANJOS ;PROX A ENTRADA DE CHAO DE ESTRELA E ACADEMIA DA CIDADE ;ATROPELAMENTO;1;AUTO E PEDESTRE ;Pedestre;-8.022749;-34.8798215
21/12/2015;15:55;ILHA JOANA BEZERRA;RUA CAPITAO TEMUDO ;SOBRE O VIADUTO PROX DO RIO MAR ;ATROPELAMENTO;1;ATROPELAMENTO COM UM PEDESTRE ;Pedestre;-8.0805598;-34.8923743
22/12/2015;11:07;IPSEP;AV RECIFE ;SENTIDO ESTANCIA E/F AO POSTO DE GASOLINA FEDERAL ;ATROPELAMENTO;1;VITIMA A ESPERA DO SAMU;Pedestre;-8.1137611;-34.9258
22/12/2015;11:59;SANTO ANTÔNIO;AV DANTAS BARRETO ;EM FRENTE À IGREJA DO CARMO;ATROPELAMENTO;1;SHYNERAI ATROPELOU UM PEDESTRE;Pedestre;-8.0661119;-34.8792073
22/12/2015;13:30;;AV DR JOSE RUFINO 2615;PX AO VIADUTO DA BR 101;ATROPELAMENTO;1;ATROPELAMENTO E COLISAO ENTRE MOTOS;Pedestre;-8.0921804;-34.9477136
23/12/2015;19:05;BOA VIAGEM;RUA VISCONDE DE JEQUITINHONHA ;NO CRUZAMENTO COM BALTAZAR PASSOS;ATROPELAMENTO;1;AUTO E PEDESTRE C/V;Pedestre;-8.1442966;-34.906649
25/12/2015;20:34;CASA AMARELA;RUA ALTO JOSE BONIFACIO ;PROX A QUADRA DE ESPORTE AO LADO DO POSTO POLICIAL;ATROPELAMENTO;1;CINQUENTINHA E PEDESTRE ;Pedestre;-8.0129;-34.9133458
29/12/2015;06:57;CASA FORTE;AV DEZESSETE DE AGOSTO 2310;DE ESQUINA COM O POSTO DE SAUDE ERMILIO DE MORAES E/F AO POSTO DE GASOLINA DISLUB ;ATROPELAMENTO;1;PEDESTRE SOCORRIDA PELO SAMU ;Pedestre;-8.0295164;-34.9257007
29/12/2015;12:45;IMBIRIBEIRA;RUA GENERAL GOES MONTEIRO ;APOS A PINHEIROS PRIMEIRO SEMÁFORO ENTRA A DIREITA- DEPOIS PRIMEIRA ESQUERDA;ATROPELAMENTO;1;ATROPELAMENTO COM VITIMA FATAL;Pedestre;-8.0954467;-34.9102861
30/12/2015;10:15;JAQUEIRA;RUA DO FUTURO ;E/F AO PPO;ATROPELAMENTO;1;VITIMA SOCORRIDO PELO SAMU ;Pedestre;-8.0395901;-34.9010941
15/12/2015;08:02;ESPINHEIRO;RUA BARAO DE ITAMARACA ;EM FRENTE AO HAPVIDA ;COLISÃO COM CICLISTA;2;ATROPELAMENTO DE CICLISTA AGUARDANDO A CHEGADA DOS BOMBEIROS;Ciclista;-8.0431795;-34.8938012
17/12/2015;15:31;CASA FORTE;AV DEZESSETE DE AGOSTO ;PROXÍMO AO BAR REAL;COLISÃO;1;COLISÃO COM VÍTIMA;Ciclista;-8.0335281;-34.9226685
17/12/2015;16:30;CAMPO GRANDE;RUA FARIAS NEVES 2;EM FRENTE AO COLÉGIO JANDIRA BOTELHO;COLISÃO COM CICLISTA;1;;Ciclista;-8.0266214;-34.8777214
22/12/2015;15:29;PRADO;AV CAXANGA 489;NA FAIXA DO BRT SENTIDO CIDADE;COLISÃO;1;COLISAO ENTRE MOTO E CICLISTA;Ciclista;-8.0547388;-34.913384
23/12/2015;11:35;CABANGA;RUA CAPITAO TEMUDO ;NO FFINAL DO VIADUTO DO CABANGA;COLISÃO COM CICLISTA;1;COLC/V SET BOA VIAGEM;Ciclista;-8.0799012;-34.892503
23/12/2015;11:44;BOA VIAGEM;RUA SETUBAL 278;E/F AO EDIFICIO ITACOATIARA VILLAGE;COLISÃO;1;;Ciclista;-8.1335351;-34.9018425
26/12/2015;22:01;BOA VISTA;AV GOVERNADOR AGAMENON MAGALHAES ;PROX A CAIXA ECONOMICA FEDERAL ;COLISÃO;1;CICLISTA E AUTO VT DA CTTU 10 ESTA NO LOCAL ;Ciclista;-8.1340688;-34.9164525
27/12/2015;13:52;IMBIRIBEIRA;AV MARECHAL MASCARENHAS DE MORAES ;SEMAFORO 741 SNT AFOGADOS;COLISÃO;1;AUTO X BICICLETA;Ciclista;-8.0884309;-34.9078131
29/12/2015;17:00;IPSEP;RUA PINTOR ANTONIO ALBUQUERQUE 61 D;EM FRENTE AO MARTELINHO DE OURO E PROX DO SINDICATO DOAS TAXISTAS;COLISÃO COM CICLISTA;1;COLISÃO COM VÍTIMA;Ciclista;-8.1078901;-34.926779
01/12/2015;11:15;IBURA;AV DOIS RIOS ;E/F A BELA VISTA MATERIAIS DE CONSTRUÇÃO;CHOQUE;1;COM UMA VÍTIMA.;Ciclomotor;-8.114583;-34.9397367
10/12/2015;09:20;AFLITOS;RUA TELES JUNIOR S/N;PROXÍMO AO EDÍFIO QUINTAS DA LARANJEIRAS;COLISÃO;1;COLISÃO COM VÍTIMA;Ciclomotor;-8.0363035;-34.8993333
13/12/2015;12:20;BOA VIAGEM;RUA BELMONTE 147;COM A RUA JOSE DOMINGUES DA SILVA / EM FRENTE AO VIA IMOVEIS;COLISÃO;2;;Ciclomotor;-8.1331899;-34.9058738
16/12/2015;07:47;VÁRZEA;AV AFONSO OLINDENSE ;EM FRENTE A SEC DE EDUCAÇÃO;COLISÃO;1;COLISÃO COM VÍTIMA ENVOLVENDO 50CC;Ciclomotor;-8.0440785;-34.9589199
20/12/2015;18:10;ENCRUZILHADA;AV NORTE ;ENFR AO EXTRA BOM SEMAFORO 045;COLISÃO;1;AUTO E CINQUENTINHA ;Ciclomotor;-8.0370697;-34.8943806
28/12/2015;07:45;ARRUDA;RUA DA REGENERACAO 1122;EM FRENTE A ESTAMPA GRAFICA;COLISÃO;1;;Ciclomotor;-8.0208593;-34.8880278
01/12/2015;12:52;BOA VIAGEM;AV ENGENHEIRO DOMINGOS FERREIRA 1950;EM FRENTE A FARMACIA PAGUE MENOS;COLISÃO;1;AUTO E MOTO;Motocicleta;-8.1066328;-34.8902526
01/12/2015;21:09;PRADO;RUA JOAO IVO DA SILVA 37;AO LADO DA HABBIB´S E AO LADO DA SAMBUEY.;COLISÃO;1;AUTO MOTO;Motocicleta;-8.0619385;-34.9096128
02/12/2015;15:14;BAIRRO DO RECIFE;AV ALFREDO LISBOA ;APÓS O MOINHO RECIFE;TOMBAMENTO;2;;Motocicleta;-8.0602893;-34.8702595
03/12/2015;08:08;IBURA;AV DOIS RIOS ;NO SEMAFORO Nº325;COLISÃO;1;COLC/VSET/SET AV RECIFE;Motocicleta;-8.1135182;-34.9389911
03/12/2015;09:41;MADALENA;AV BEIRA RIO 1041;EM FRENTE DO EDF/ ENGENHO MADALENA;COLISÃO;1;COLC/V ;Motocicleta;-8.0491849;-34.9045683
03/12/2015;14:37;JORDÃO;AV MARIA IRENE 184;;COLISÃO;1;;Motocicleta;-8.1404997;-34.9235013
03/12/2015;15:22;BOA VIAGEM;RUA BRUNO VELOSO ;SEMÁFORO 335 / SAIDA SHOPPING RECIFE;COLISÃO;1;COLC/V;Motocicleta;-8.1213541;-34.901408
03/12/2015;18:47;BOA VISTA;AV GOVERNADOR AGAMENON MAGALHAES ;SEMAFORO 075;COLISÃO;1;COLISÃO ENTRE MOTO E AUTO C/V;Motocicleta;-8.0566549;-34.897732
04/12/2015;04:24;CAMPO GRANDE;AV GOVERNADOR AGAMENON MAGALHAES ;EM FRENTE AO INSTITUTO DE CRIMINALÍSTICA ;CHOQUE;1;CONDUTOR PERDEU O CONTROLE E CHOCOU-SE COM O POSTE;Motocicleta;-8.039691;-34.87921
04/12/2015;08:19;TORRE;RUA PADRE ANCHIETA 578;CRUZAMENTO COM A RUA DAVINO PONTUAL;COLISÃO;1;COLISÃO COM VITIMAS-VEICULOS FORAM RETIRADOS DO LOCAL;Motocicleta;-8.0474474;-34.9085829
04/12/2015;09:33;AFOGADOS;RUA COSME VIANA ;EM FRENTE A PORTO SEGURO ;COLISÃO;1;COLISÃO COM VITIMA ENTRE AUTO E MOTO;Motocicleta;-8.0711974;-34.9094573
04/12/2015;11:50;MADALENA;RUA JOSE OSORIO ;CRUZ COM VISCONCONDE DE ALBUQUERQUE;COLISÃO;1;COLISÃO COM VITIMA ENTRE AUTO E MOTO;Motocicleta;-8.0533233;-34.9067469
04/12/2015;16:17;IPSEP;RUA JEAN EMILE FAVRE ;EM FRENTE A DELEGACIA;COLISÃO;1;COLISÃO ENTRE AUTO E MOTO COM LESÕES;Motocicleta;-8.1135168;-34.9223748
04/12/2015;16:26;IMBIRIBEIRA;RUA ARQUITETO LUIZ NUNES 956;PROX DA GVT S/T CID;COLISÃO;1;COLISAO DE AUTO E MOTO COM UMA VITIMA ;Motocicleta;-8.0936489;-34.9112892
04/12/2015;17:26;IBURA;AV DOIS RIOS XX;PROX A POLICLINICA DO IBURA;COLISÃO;2;CAMINHAO MOTO- SEMAFORO 351;Motocicleta;-8.1201552;-34.943583
05/12/2015;13:13;ESTÂNCIA;AV RECIFE ;EM FRENTE A PICANHA REAL SENTIDO BR;COLISÃO;1;COLISÃO COM VITIMA ENTRE AUTO E MOTO;Motocicleta;-8.0811812;-34.9333316
05/12/2015;15:12;ENCRUZILHADA;RUA FERNANDO CESAR 65;EM FRENTE A SECRETARIA DO MEIO AMBIENTE / SEMÁFORO 045;COLISÃO;1;MOTO E AUTO;Motocicleta;-8.0365253;-34.8939554
05/12/2015;15:39;CORDEIRO;EST DO FORTE DO ARRAIAL N DO B JESUS S/N;NA CURVA DO S EM FRENTE AO GALETO DO GORDO;COLISÃO;1;1 AUTO E 1 MOTO;Motocicleta;-8.0556497;-34.9301076
05/12/2015;18:07;TORRÕES;AV ENGENHEIRO ABDIAS DE CARVALHO 962;EM FRENTE A DESTRIBUIDORA DLT;COLISÃO;1;AUTO MOTO;Motocicleta;-8.0646419;-34.9374086
05/12/2015;19:26;DERBY;AV GOVERNADOR AGAMENON MAGALHAES XX;EM FRENTE AO COLEGIO AMERICANO BATISTA;COLISÃO;1;AUTO MOTO;Motocicleta;-8.0534268;-34.8961052
05/12/2015;22:45;CAXANGÁ;AV CAXANGA 2363;PROX AO PARQUE DE EXPOSICAO DO CORDEIRO E EM FRENTE A CONCESIONARIA PI ALTO;COLISÃO;1;AUTO MOTO;Motocicleta;-8.046798;-34.9274066
05/12/2015;23:58;SAN MARTIN;AV ENGENHEIRO ABDIAS DE CARVALHO ;CRUZ GAL SAN MARTIN;COLISÃO;1;AUTO - MOTO;Motocicleta;-8.0605309;-34.9258107
06/12/2015;04:44;IBURA;AV DOIS RIOS ;PRIXIMO A IGREJA ECHADAE;COLISÃO;1;AUTO - MOTO;Motocicleta;-8.1125184;-34.9383125
06/12/2015;07:41;DERBY;AV GOVERNADOR AGAMENON MAGALHAES ;PRAÇA DO DERBY - SENTIDO BOA VIAGEM;COLISÃO;2;COLISÃO ENTRE AUTO (IC) E MOTOCICLETA COM VÍTIMA;Motocicleta;-8.0567452;-34.8990597
06/12/2015;08:35;TEJIPIÓ;RUA FALCAO DE LACERDA 181;EM FRENTE DA IGREJA PRESBITERIANA DE TEJIPIO;COLISÃO;2;COLISÃO COM VITIMAS;Motocicleta;-8.091482;-34.9593008
06/12/2015;23:52;GRAÇAS;RUA GUILHERME PINTO ;ESQUINA COM A ACADEMIA TREINO FITNESS;COLISÃO;1;1 AUTO- 1 CARRO;Motocicleta;-8.052828;-34.9022542
07/12/2015;11:27;VÁRZEA;RUA TAPIRAMA ;EM FRENTE DO TERMINAL DOS ÔNIBUS DA UR7;COLISÃO;1;COLS/V ;Motocicleta;-8.0372901;-34.9816462
07/12/2015;13:09;CAXANGÁ;AV CAXANGA ;SEMÁFORO 281;COLISÃO;1;MOTO E AUTO;Motocicleta;-8.0241354;-34.9620205
07/12/2015;14:43;SÃO JOSÉ;AV SUL ;CRUZ COM DANTAS BARRETO- SEMÁFORO 311;COLISÃO;1;01 MOTO 01 ONIBUS;Motocicleta;-8.07331;-34.8850304
07/12/2015;21:31;IBURA;AV DOIS RIOS XX;PROX A POLICLINICA DO IBURA VITIMA JA SOCORRIDA PELO SAMU;COLISÃO;1;AUTO MOTO;Motocicleta;-8.1205747;-34.9438928
07/12/2015;21:56;SAN MARTIN;AV GENERAL SAN MARTIN ;prox a lombada eletronica- sentido suburbio.;COLISÃO;2;auto e moto;Motocicleta;-8.0683214;-34.9280369
08/12/2015;05:01;TORRE;RUA SOUZA BANDEIRA 463;PROX AO GOE;COLISÃO;1;AUTO E MOTO;Motocicleta;-8.0477222;-34.9174771
08/12/2015;17:27;VÁRZEA;RUA CONEGO JOSE FERNANDES MACHADO ;RUA DA ANTENA;COLISÃO;3;MOTO E AUTO;Motocicleta;-8.0369688;-34.9737793
08/12/2015;19:18;CASA AMARELA;RUA PAULA BATISTA ;E/F AO BOMPREÇO;COLISÃO;1;MOTO E AUTO;Motocicleta;-8.0287342;-34.9171673
08/12/2015;21:12;CASA AMARELA;AV NORTE ;PX A PIZARIA DO GORDO;COLISÃO;1;COLISAO ENTRE AUTO E MOTO;Motocicleta;-8.0208593;-34.9217016
09/12/2015;07:03;ROSARINHO;RUA DR JOSE MARIA ;SEMAFORO 362 ESQUINA DA FARMACIA DROGASI;COLISÃO;2;COLISÃO COM VITIMAS;Motocicleta;-8.035431;-34.8983341
09/12/2015;11:35;JAQUEIRA;RUA PADRE ROMA ;CRUZ COM A RUA DO FUTURO EM BAIXO DO SEMAFORO 223 ;COLISÃO;1;COLISÃO COM COM 1 VITIMA A ESPERA DO SAMU ;Motocicleta;-8.0339491;-34.9055412
09/12/2015;11:50;AFOGADOS;RUA SAO MIGUEL 1412;AO LADO DO SUPERMERCADO REDE TEM / SENT SUB;COLISÃO;1;COLISÃO COM VITIMAS;Motocicleta;-8.0808838;-34.9193519
09/12/2015;14:31;ÁGUA FRIA;RUA SAO SEBASTIAO ;PRÓXIMO A GRANJA DO NEGO- RUA DA FEIRA LIVRE;COLISÃO;1;01 AUTO 01 MOTO;Motocicleta;-8.0067599;-34.901129
09/12/2015;18:09;IBURA;AV RECIFE ;EM FRENTE A ENTRADA DO IBURA;COLISÃO;1;COLISÃO COM VITIMA UM CARRO E UMA MOTO;Motocicleta;-8.1069554;-34.9272859
09/12/2015;20:36;CASA FORTE;AV DEZESSETE DE AGOSTO ;ENFR AO PLAZA SHOPPING E MEC DONALDS;COLISÃO;1;MOTO E AUTO ;Motocicleta;-8.036666;-34.9141377
10/12/2015;07:35;SÃO JOSÉ;RUA DO PEIXOTO ;AV DANTAS BARRETO;COLISÃO;1;ONIBUS E MOTO;Motocicleta;-8.0712545;-34.8834103
10/12/2015;09:36;BOA VIAGEM;RUA ERNESTO DE PAULA SANTOS ;CRUZAMENTO COM A RUA DOS NAVEGANTES DE ESQUINA COM O RECIFE PALACE ;COLISÃO;1;COLISÃO ENTRE AUTO E MOTO COM VÍTIMA ;Motocicleta;-8.1251073;-34.8979318
10/12/2015;09:41;ROSARINHO;RUA DR JOSE MARIA 657;CRUZAMENTO COM A SANTOS DUMOUNT ;COLISÃO;1;COLISAO COM VITIMA ENTRE AUTO E MOTO;Motocicleta;-8.0356302;-34.8974597
10/12/2015;10:04;BOA VIAGEM;AV ARMINDO MOURA S/N;EM FRENTE AO QUARTEL DO BOMBEIRO;COLISÃO;1;COLISÃO COM VÍTIMA;Motocicleta;-8.1501432;-34.9102861
10/12/2015;10:15;PINA;AV ENGENHEIRO DOMINGOS FERREIRA ;POSTO TOTAL NO INICIO DA DOMINGOS FERREIRA / AV HERCULANO BANDEIRA;COLISÃO;1;COLISÃO ENVOLVENDO MOTOCICLETA;Motocicleta;-8.0895674;-34.8845342
10/12/2015;16:08;MANGUEIRA;RUA SAO MIGUEL ;E/F AO POSTO SETA;COLISÃO;1;COLISAO ENTRE AUTOI E MOTO ;Motocicleta;-8.0809933;-34.9208017
10/12/2015;16:08;IPUTINGA;AV CAXANGA ;AO LADO DO ELEVADO DO BRT- SENT CAMARAGIBE;COLISÃO;1;COLISÃO COM VÍTIMA ENTRE AUTO E MOTO;Motocicleta;-8.0524137;-34.9174087
10/12/2015;19:51;BOA VISTA;AV GOVERNADOR AGAMENON MAGALHAES ;PROX AO BOM PREÇO SENTIDO OLINDA ;COLISÃO;1;AUTO E MOTO ;Motocicleta;-8.0515545;-34.8947990
10/12/2015;22:38;TAMARINEIRA;RUA GUIMARAES PEIXOTO ;INDO PELA ESTRADA DO ARRAIAL- APOS O COLEGIO SANTA CATARINA PRIMEIRA A DIREITA;COLISÃO;1;COLISÃO ENTRE AUTO E MOTO C/V;Motocicleta;-8.0274394;-34.9069601
11/12/2015;06:52;IMBIRIBEIRA;AV MARECHAL MASCARENHAS DE MORAES ;SENTIDO PRAZERES E/F AO MURO DO AEROPORTO;COLISÃO;1;COLISÃO COM 1 VITIMA SOCORRIDO PELO SAMU ;Motocicleta;-8.1392969;-34.9175549
11/12/2015;07:33;ILHA DO RETIRO;RUA SPORT CLUBE DO RECIFE ;EM FRENTE A LOJA DO SPORT-SENT/CENTRO;COLISÃO;1;COLISÃO COM VITIMA -MULHER GRAVIDA;Motocicleta;-8.0615295;-34.9025452
11/12/2015;08:36;SÃO JOSÉ;C SANTA RITA ;SENTIDO BOA VIAGEM NA SUBIDA DO VIADUTO E/F A GRANDE RECIFE ;COLISÃO;2;COLISÃO COM 2 VITIMAS;Motocicleta;-8.0720565;-34.8790169
11/12/2015;12:10;SANTO AMARO;AV CRUZ CABUGA ;EM FRENTE AO HOSPITAL DA MARINHA;COLISÃO;1;COLISAO AUTO E MOTO;Motocicleta;-8.0454621;-34.8754817
11/12/2015;12:19;ARRUDA;AV BEBERIBE ;CRUZAMENTO COM A RUA PORTO MAGALHAES;COLISÃO;1;COLISAO COM VITIMA ENVOLVENDO AUTO E MOTO;Motocicleta;-8.0191422;-34.8939353
11/12/2015;18:32;SANTO AMARO;RUA AURORA 1443;EM FRENTE AO PREDIO SINDIFISCO;COLISÃO;1;COLISÃO ENTRE AUTO E MOTO C/V;Motocicleta;-8.0524289;-34.8754958
11/12/2015;18:42;ESTÂNCIA;RUA SAO MIGUEL ;CRUZAMENTO COM RUA GUARAMIRIM;COLISÃO;1;COLISÃO AUTO X MOTO;Motocicleta;-8.082663;-34.9242389
11/12/2015;19:22;TORRE;RUA CONDE DE IRAJA 811;EM FRENTE A PADARIA IRAJA;COLISÃO;1;COLISÃO ENTRE AUTO E MOTO C/V;Motocicleta;-8.0464846;-34.9109741
11/12/2015;20:27;SANTO AMARO;AV CRUZ CABUGA ;EM FRENTE AO ARMAZEM CORAL;COLISÃO;1;COLISÃO ENTRE AUTO E MOTO C/V;Motocicleta;-8.0523088;-34.8804277
11/12/2015;22:21;AREIAS;AV DR JOSE RUFINO ;APOS O MINI SHOPPING DE AREIAS- NA ENTRADA DE JARDIM SÃO PAULO- NO SEMAFORO 044;COLISÃO;1;COLISÃO ENTRE AUTO E MOTO C/V;Motocicleta;-8.0917795;-34.9360970
12/12/2015;07:55;IPSEP;RUA BLUMENAU ;CRUZ COM A RUA ITANAGE EM BAIXO DO SEMAFORO 111;COLISÃO;1;COLISÃO COM 1 VITIMA A ESPERA DO SAMU ;Motocicleta;-8.1064323;-34.9213180
12/12/2015;08:57;IPSEP;AV RECIFE ;EM FRENTE AO MARTELINHO DE OURO NO SENTIDO AEROPORTO;COLISÃO;2;COLISÃO MOTO E CAMINHÃO BAÚ COM 2 VITIMAS;Motocicleta;-8.1169821;-34.9232036
12/12/2015;09:11;BARRO;AV DR JOSE RUFINO ;EM CIMA DA PONTE NO CRUZAMENTO COM A BR 101;COLISÃO;1;COLC/V SET/BR;Motocicleta;-8.0924566;-34.9471128
12/12/2015;14:04;CASA AMARELA;AV NORTE ;SESC DE CASA AMARELA;COLISÃO;2; ;Motocicleta;-8.0259654;-34.9057156
12/12/2015;14:44;MADALENA;AV BEIRA RIO 855;EM FRENTE AO RESTAURANTE COMPAINHA MARITMA;COLISÃO;1;AUTO E MOTO- VITIMA JA SOCORRIDA P/ SAMU;Motocicleta;-8.0513792;-34.9049941
13/12/2015;00:32;DERBY;RUA AMARO BEZERRA ;EM FRENTE A ARVORE DA GLOBO NORDESTE- PROX AO SEMAFORO 40;COLISÃO;1;COLISAO ENTRE UM AUTO E MOTO;Motocicleta;-8.0551;-34.9006006
13/12/2015;14:03;BOA VIAGEM;RUA TENENTE JOAO CICERO 325;EDF SAN PIERRE- PRÓXIMO AO COLÉGIO APA;COLISÃO;1;01 AUTO 01 MOTO;Motocicleta;-8.1118944;-34.8967007
13/12/2015;16:46;VASCO DA GAMA;RUA VASCO DA GAMA ;EM FRENTE AO SESI DO VASCO / FAIXA DA DIREITA;COLISÃO;2;MOTO E AUTO;Motocicleta;-8.0192551;-34.9212965
13/12/2015;16:53;IBURA;RUA DR BENIGNO JORDAO DE VASCONCELOS 250;PX A UPA ;COLISÃO;1;COLISAO ENTRE MOTO E AUTO;Motocicleta;-8.1256822;-34.9500498
13/12/2015;17:39;CASA AMARELA;AV PEDRO ALLAIN 125;;COLISÃO;1; ;Motocicleta;-8.0223287;-34.9179626
13/12/2015;20:00;MUSTARDINHA;RUA VINTE E UM DE ABRIL 1468;;COLISÃO;3;DUAS MOTOS;Motocicleta;-8.0749485;-34.920162
14/12/2015;13:04;BOA VIAGEM;RUA COSMORAMA ;CRUZ COM A ARMINDO MOURA- SEMÁFORO 441;COLISÃO;1;02 AUTOS 01 MOTO;Motocicleta;-8.1486962;-34.9140197
14/12/2015;13:53;ESTÂNCIA;AV TAPAJOS ;AO LADO CONJ RESD INÊS ANDREAZA;COLISÃO;1;01 MOTO 01 AUTO;Motocicleta;-8.0923185;-34.9261916
14/12/2015;19:52;SANTO AMARO;RUA DA AURORA ;OK;COLISÃO;1;AUTO E MOTO;Motocicleta;-8.0568076;-34.8782605
15/12/2015;07:56;CASA FORTE;AV DEZESSETE DE AGOSTO ;SEMAFORO 372-EM FRENTE A PRAÇA DE CASA FORTE;COLISÃO;1;COLISÃO COM VITIMA;Motocicleta;-8.0358214;-34.92017
15/12/2015;07:57;DERBY;RUA JENER DE SOUZA ; CRUZAMENTO COM PRAÇA DO DERBY;COLISÃO;1;AUTO KLB 2944 X MOTO PEY8293;Motocicleta;-8.0570307;-34.9000695
15/12/2015;10:07;IMBIRIBEIRA;AV MARECHAL MASCARENHAS DE MORAES 2056;EM FRENTE DA JACAUNA DECORACOES;COLISÃO;1;COLC/V-SETAEROPORTO;Motocicleta;-8.1019499;-34.9106053
15/12/2015;10:17;SANTO AMARO;RUA TREZE DE MAIO 776;E/F AO COLEGIO JOSE MARIA ;COLISÃO;1;COLISÃO COM 1 VITIMA A ESPERA DO SAMU ;Motocicleta;-8.0479931;-34.8805833
15/12/2015;13:57;ESPINHEIRO;RUA QUARENTA E OITO ;ESQ COM RUA DO ESPINHEIRO;COLISÃO;1;AUTO E MOTO / MOTO 37 GM ANDRADE;Motocicleta;-8.0423017;-34.8925325
15/12/2015;16:04;VÁRZEA;AV CAXANGA ;DENTRO DO POSTO SHELL - PROXIMO A UPA DA CAXANGA - SENTIDO ALDEIA;COLISÃO;1;COLISAO ENTRE MOTO E AUTO;Motocicleta;-8.0313224;-34.9553928
15/12/2015;23:54;PINA;AV HERCULANO BANDEIRA ;PROXIMO AO SEMAFORO 137;COLISÃO;1;COLISAO ENTRE UM AUTO E MOTO;Motocicleta;-8.0889832;-34.8850572
16/12/2015;00:27;ESPINHEIRO;AV JOAO DE BARROS ;CRUZAMENTO COM RUA 48- SENTIDO CIDADE ;COLISÃO;1;COLISÃO ENTRE UM ÔNIBUS E MOTO ;Motocicleta;-8.0446867;-34.8901105
16/12/2015;06:35;PINA;AV HERCULANO BANDEIRA ;SENTIDO CIDADE NA DESCIDA DA PONTE DO PINA ;CHOQUE;1;CONDUTOR COLIDIU EM UM OBJETO FIXO ;Motocicleta;-8.0845325;-34.8892629
16/12/2015;11:22;AFOGADOS;RUA SAO MIGUEL ;PROXÍMO AO RM EXPRESS;COLISÃO; ;COLISÃO SEM VÍTIMA;Motocicleta;-8.0806912;-34.9138266
16/12/2015;18:01;ARRUDA;EST VELHA DE AGUA FRIA ;NA ENTRADA DA BOMBA DO HEMETERIO;COLISÃO;1;COLISÃO ENTRE AUTO E MOTO C/V;Motocicleta;-8.023923;-34.8972613
16/12/2015;18:48;ENGENHO DO MEIO;AV CAXANGA ;EM FRENTE AO CARTORIO;COLISÃO;1;COLISÃO ENTRE AUTO E MOTO C/V;Motocicleta;-8.0417201;-34.9371377
17/12/2015;14:21;TEJIPIÓ;AV DR JOSE RUFINO ;EM FRENTE AESCOLA ALBERTO TORRE / SENT RECIFE;COLISÃO;1;MOTO E AUTO;Motocicleta;-8.0915033;-34.9495992
17/12/2015;19:01;AFOGADOS;AV ENGENHEIRO ABDIAS DE CARVALHO ;CRUZAMENTO DA ENGEFRIO;COLISÃO;1;COLISAO ENTRE AUTO E MOTO;Motocicleta;-8.062374;-34.9104309
18/12/2015;07:45;SANTO AMARO;AV NORTE 1624;EM FRENTE AO EDF/MACAPA;COLISÃO;1;COLC/VSETCD;Motocicleta;-8.0361667;-34.8948888
18/12/2015;08:16;SANTO AMARO;RUA DA SAUDADE ;POR TRÁS DO TRIBUNAL DE CONTAS;COLISÃO;1;COLISÃO COM VITIMAS;Motocicleta;-8.0593876;-34.8815529
18/12/2015;09:27;SÃO JOSÉ;AV ENGENHEIRO JOSE ESTELITA ;SUBIDA DO VIADUTO DAS CINCO PONTAS;COLISÃO;1;COLISÃO ENTRE ÔNIBUS E MOTO;Motocicleta;-8.0719822;-34.8801059
18/12/2015;09:59;ILHA DO RETIRO;RUA SPORT CLUBE DO RECIFE ;EM FRENTE AO CLUBE SPORT ;COLISÃO;1;COLISÃO COM VITIMAS;Motocicleta;-8.061471;-34.9029744
18/12/2015;11:05;CASA FORTE;RUA LEONARDO BEZERRA CAVALCANTE ;PRÓXIMO AO PLAZA SHOPPING;COLISÃO;1;AUTO E MOTO;Motocicleta;-8.0371467;-34.9093044
18/12/2015;15:17;MADALENA;RUA REAL DA TORRE 660;EM FRENTE AO LOJÃO DO CONDOMÍNIO;COLISÃO;1;MOTO E AUTO;Motocicleta;-8.0454834;-34.9098247
19/12/2015;12:13;SANTO AMARO;AV CRUZ CABUGA ;EM FRENTE A GOVERNADORIA / SENT CIDADE;COLISÃO;1;DUAS MOTOS E UM AUTO;Motocicleta;-8.0443148;-34.8746932
19/12/2015;16:59;SAN MARTIN;RUA QUINZE DE MARCO ;E/F A CHESF;COLISÃO;1;COLISAO ENTRE MOTOS;Motocicleta;-8.0641321;-34.9310464
20/12/2015;02:51;ARRUDA;AV BEBERIBE 573;PROX AO ESQUENTAE EM FRENTE AO BATE PAPO;COLISÃO;2;COLISAO ENTRE UM CARRO E MOTO;Motocicleta;-8.0250703;-34.8935464
20/12/2015;14:17;IMBIRIBEIRA;AV MARECHAL MASCARENHAS DE MORAES 884;EM FRENTE A MASSAU EQUIPADORA / SEMÁFORO 532;COLISÃO;2;MOTO E AUTO;Motocicleta;-8.0900852;-34.9081779
20/12/2015;15:58;IMBIRIBEIRA;AV MARECHAL MASCARENHAS DE MORAES ;EM FRENTE A MEIRA LINS / SENT CIDADE;COLISÃO;4;DUAS MOTOS;Motocicleta;-8.0927142;-34.9087599
20/12/2015;19:21;CABANGA;AV ANTONIO DE GOES ;AO LADO DO CABANGA IATE CLUBE;ACID DE PERCURSO;1;CONDUTOR PERDEU O CONTROLE DA MOTO CAIU ESPONTANEAMENTE;Motocicleta;-8.0786425;-34.8916072
21/12/2015;12:05;JORDÃO;AV MARIA IRENE ;PX A SAIDA DO TUNEL FELIPE CAMARAO -SENTIDO JABOATAO;COLISÃO;1;COLISAO ENTRE CAMINHAO E MOTO - USUARIO INFORMOU QUE OS VEICULOS FOI RETIRADO DA VIA;Motocicleta;-8.1412086;-34.9327683
21/12/2015;12:12;BOA VIAGEM;AV ENGENHEIRO DOMINGOS FERREIRA ;E/F AO EXTRA SENTIDO BOA VIAGEM;COLISÃO;2;01 AUTO 01 MOTO;Motocicleta;-8.1047859;-34.8894346
21/12/2015;14:22;NOVA DESCOBERTA;RUA NOVA DESCOBERTA ;E/F AO MERCADO PUPLICO DE NOVA DESCOBERTA;COLISÃO;1;COLISAO AUTO E MOTO;Motocicleta;-8.0006934;-34.9226296
22/12/2015;17:18;BOA VIAGEM;RUA ANTONIO FALCAO 285;EM FRENTE AO CONJUNTO L`PARK;COLISÃO;1;AUTO X MOTO;Motocicleta;-8.1147994;-34.8973659
22/12/2015;19:03;ARRUDA;RUA PRUDENTE DE MORAES ;PROX A PRAÇA DO IPODROMO E AO CALDINHO DA ZEZE ;COLISÃO;2;DUAS MOTOS E UM AUTO ;Motocicleta;-8.0285416;-34.8874725
22/12/2015;19:47;BEBERIBE;AV BEBERIBE ;PROXAO SEST SENAT- EM FRENTE AO POSTO DE GASOLINA IVINI;COLISÃO;2;COLISÃO ENTRE DUA MOTO C/V;Motocicleta;-8.0072353;-34.8905075
23/12/2015;07:36;ILHA DO RETIRO;RUA TABAIARES 1700;E/F A CONCESSIONARIA HYUNDAI ;COLISÃO;1;COLISÃO COM 1 VITIMA A ESPERA DO SAMU ;Motocicleta;-8.0652262;-34.9077514
23/12/2015;07:58;IMBIRIBEIRA;AV GENERAL MAC ARTHUR 254;ESTAÇÃO ANTONIO FALCÃO;COLISÃO;1;BATEDOR DA CTTU VT 08 NO LOCAL;Motocicleta;-8.1095285;-34.9088323
24/12/2015;11:52;DOIS UNIDOS;AV HILDEBRANDO DE VASCONCELOS ;EM FRENTE DO COLEGIO ESTADUAL DE BEBERIBE;COLISÃO;2;COLC/V;Motocicleta;-8.002886;-34.9021845
24/12/2015;15:10;VÁRZEA;RUA MARECHAL MANOEL LUIS OSORIO ;PRX AO COLÉGIO PONTUAL;COLISÃO;1;AUTO E MOTO;Motocicleta;-8.041335;-34.945069
24/12/2015;18:50;CAMPO GRANDE;EST DE BELEM 1335;CRUZAMENTO COM RUA SÃO CAETANO- PROX A IGREJA DO BOM PARTO;COLISÃO;1;COLISAO ENTRE AUTO E MOTO C/V;Motocicleta;-8.0322944;-34.8801327
25/12/2015;18:08;TEJIPIÓ;AV DR JOSE RUFINO 3030;EM FRENTE AO COLEGIO ALBERTO TORRES;COLISÃO;1;AUTO MOTO;Motocicleta;-8.0914874;-34.9496461
25/12/2015;21:25;CASA FORTE;AV DEZESSETE DE AGOSTO ;ENFR A SORVETERIA FRI SABOR SEMAFORO 410;COLISÃO;1;AUTO E MOTO ;Motocicleta;-8.0326769;-34.9232036
25/12/2015;21:45;AFOGADOS;RUA SAO MIGUEL ;PROX AO 4 BCOM ;COLISÃO;1;AUTO E MOTO ;Motocicleta;-8.0806899;-34.9146768
26/12/2015;13:03;IMBIRIBEIRA;AV MARECHAL MASCARENHAS DE MORAES 5109;SENT/CIDADE SUBURBIO NA PRIMEIRA ENTRADA DO AEROPORTO;COLISÃO;1;COLISÃO COM VITIMA-VT DA CTTU 39 NO LOCAL;Motocicleta;-8.1286893;-34.9157792
27/12/2015;10:27;BEBERIBE;PRC DA CONVENCAO ;EM TORNO DA PRAÇA;COLISÃO;1;AUTO E MOTO;Motocicleta;-8.0367988;-34.8910493
27/12/2015;18:31;AREIAS;RUA BARROS SOBRINHO 210;ENFR A RONDA E PORTRAS DO MERCADO DE AREIAS ;COLISÃO;1;UM VEICULO DA CELPE E UM AUTRO E MOTO ;Motocicleta;-8.0886858;-34.9342811
28/12/2015;07:38;ILHA DO LEITE;RUA DR JOAO ASFORA 285;E/F AO EMPRESARIAL GRAHAM BELL ( SEMÁFORO Nº122);COLISÃO;1;COM VÍTIMA;Motocicleta;-8.0636965;-34.8964271
28/12/2015;08:08;ILHA DO LEITE;AV FREI MATIAS TEVES 285;POR TRÁS DO EMPRESARIAL GRAMBEL;COLISÃO;1;COLISAO ENTRE AUTO E MOTO COM VITIMA ;Motocicleta;-8.0640072;-34.8961133
28/12/2015;10:21;CORDEIRO;RUA GOMES TABORDA 1645;E/F A BATERIAS HERBO;COLISÃO;1;COM UMA VÍTIMA;Motocicleta;-8.0547136;-34.9260856
28/12/2015;18:27;PARNAMIRIM;RUA MIZAEL MONTENEGRO 55;E/F A ENTRADA DO PAO DE ACUCAR;COLISÃO;1;COLISAO ENTRE AUTO E MOTO C/ VITIMA - VEICULOS REMOVIDOS DO LOCAL PELO USUARIO ;Motocicleta;-8.0321497;-34.9088806
29/12/2015;08:07;PRADO;AV ENGENHEIRO ABDIAS DE CARVALHO ;EM FRENTE A BIG CAR SENTIDO SUBURBIO / CIDADE;COLISÃO;1;COLISAO COM VITIMA ENTRE MOTO E ONIBUS ;Motocicleta;-8.0630074;-34.9330956
29/12/2015;13:27;BAIRRO DO RECIFE;AV ALFREDO LISBOA ;EM FRENTE A CAIXA CULTURAL;COLISÃO;1;COLISÃO COM VÍTIMA;Motocicleta;-8.0627006;-34.8711661
30/12/2015;00:18;CAJUEIRO;AV SEBASTIAO SALAZAR 673;LOGO APÓS A IGREJA COTÓLICA SÃO JUDAS TADEU // UMA PARADA ANTES DO TERMINAL DE CAJUEIRO ;COLISÃO;1;CONDUTOR CAIU DA MOTO AO TENTAR DESVIAR DE DOIS CARROS ESTACIONADOS EM CIMA DA CALÇADA ;Motocicleta;-8.0117984;-34.8831958
30/12/2015;18:41;BEBERIBE;AV BEBERIBE 433;ANTES DO BANCO DO BRASIL- SENTIDO ENCRUZILHADA;COLISÃO;1;COLISÃO ENTRE DOIS AUTO E UMA MOTO- C/V;Motocicleta;-8.0334736;-34.8918164
03/12/2015;09:26;SANTO ANTÔNIO;RUA SIQUEIRA CAMPOS 244;SENTIDO CORREIOS E/F A SECRETARIA DA POLICIA CIVIL ;COLISÃO;1;COLISÃO COM 1 VITIMA A ESPERA DO SAMU ;Outros;-8.0627179;-34.8780714
03/12/2015;15:43;BOA VISTA;AV CONDE DA BOA VISTA ;EM FRENTE AO ATACADO DOS PRESENTES;COLISÃO;15;COLISÃO DE TRES VEÍCULOS COM VÍTIMAS;Outros;-8.0601937;-34.8853697
13/12/2015;17:43;SÃO JOSÉ;AV DANTAS BARRETO ;AV NOSSA SENHORA DO CARMO / SEMÁFORO 284;COLISÃO;1;;Outros;-8.0659167;-34.8789471
02/07/2015;09:50;CORDEIRO;AV CAXANGA ;EM FRENTE A ITALIANA;COLISÃO;1;COLISÃO COM VITIMA;Automóvel;-8.0368254;-34.9458548
02/07/2015;dez/28;DERBY;AV GOVERNADOR AGAMENON MAGALHAES ;SEMAFORO 078;COLISÃO;1;COLISÃO SEM VITIMA ENTRE DOIS AUTO-PASSEIO;Automóvel;-8.0485668;-34.8930448
03/07/2015;05:35;IPSEP;AV RECIFE ;CRUZAMENTO COM A AV JEAN EMILE FAVRE // PRÓX AO POSTO FEDERAL;CHOQUE;F;;Automóvel;-8.115272;-34.9245715
07/07/2015;01:03;BOA VIAGEM;AV BOA VIAGEM 4988;PROX A PRAÇA DE BOA VIAGEM;CHOQUE;1;CHOQUE CONTRA UMA ARVORE COM VITIMA NAS FERRAGENS;Automóvel;-8.1330253;-34.9002117
08/07/2015;11:44;BOA VISTA;AV JOAO DE BARROS ;EM FRENTE AO CONSERVATORIO DE MUSICA;COLISÃO;1;COLISAO COM VITIMA ENTRE UM AUTO E UM ONIBUS;Automóvel;-8.0492254;-34.889971
09/07/2015;23:03;TORRE;AV PROFESSOR ESTEVAO FRANCISCO DA COSTA ;DE ESQ DA PADARIA RAINHA DA TORRE ;COLISÃO;1;DOIS AUTO ;Automóvel;-8.0483995;-34.9192701
10/06/2015;09:04;IMBIRIBEIRA;AV MARECHAL MASCARENHAS DE MORAES 2716;EM FRENTE AO GERALDÃO- SEMÁFORO 290;ENGAVETAMENTO;3;ENGAVETAMENTO ENVOLVENDO 5 AUTO- E UM CAMINÃO COM VITIMA;Automóvel;-8.1161217;-34.9134779
11/07/2015;18:10;JORDÃO;AV MARIA IRENE ;NO FINAL DO AEROPORTO DEPOIS DO TUNEL ;COLISÃO;2;DOIS AUTO PASSEIO ACIDENTE GRAVE ;Automóvel;-8.1419149;-34.9183166
11/07/2015;19:40;JARDIM SÃO PAULO;AV LIBERDADE ;ENF AO CIMITERIO PARQUE DAS FLORES ;COLISÃO;1;DOIS AUTO PASSEIO ;Automóvel;-8.0821531;-34.9601161
11/07/2014;23:51;TEJIPIÓ;RUA FALCAO DE LACERDA ;PRÓX A ESTAÇÃO DO METRÔ TEJIPIÓ ;COLISÃO;1;ENTRE QUATRO VEÍCULOS;Automóvel;-8.0908421;-34.9569136
14/07/2015;18:20;APIPUCOS;RUA DE APIPUCOS 235;A POIS A ESCOLA SILVA JARDIM SNT DOIS IRMÃO ;COLISÃO;1;DOIS AUTO PASSEIO ;Automóvel;-8.0258512;-34.9299842
16/07/2015;08:28;ARRUDA;AV PROFESSOR JOSE DOS ANJOS ;ESQUINA COM GERONIMO VILELA- PROX A PONTE SENTIDO CAMPO GRANDE;ATROPELAMENTO;1;ATROPELAMENTO COM VITIMA- E CAPOTAMENTO- VEICULO SE ENCONTRA DENTRO DO CANAL;Automóvel;-8.0246666;-34.8828793
16/07/2015;20:15;BOA VISTA;RUA DO PRINCIPE ;CRUZAMENTO COM GERVASIO PIRES;COLISÃO;1;AUTO E ONIBUS;Automóvel;-8.0573627;-34.8850518
17/07/2015;19:24;AREIAS;AV CAPITAO GREGORIO DE CALDAS ;AO LADO DO HIPER BOMPREÇO SENTIDO BOA VIAGEM;COLISÃO;1;CAMINHÃO E AUTO;Automóvel;-8.0968966;-34.9297214
18/07/2015;01:53;AFOGADOS;RUA VINTE E UM DE ABRIL ;CRUZAMENTO COM A VINTE DE PELOPIDAS ;COLISÃO;2;COLISAO ENTRE DOIS AUTOS COM VITIMA ;Automóvel;-8.0770146;-34.9092266
18/07/2015;03:28;CASA AMARELA;EST DO ARRAIAL ;AO LADO DO HOPITAL AGAMENON MAGALHAES;COLISÃO;1;COLISAO ENTRE DOIS AUTOS COM VITIMA ;Automóvel;-8.0301219;-34.907003
27/07/2015;10:48;APIPUCOS;RUA 18 DE DEZEMBRO ;PROX AO DECIMO 1 BATALHÃO E/F A FUNDAÇÃO GILBERTO FREIRE ;COLISÃO;2;COLISÃO COM VITIMAS SOCORRIDAS PELOS BOMBEIROS ;Automóvel;-8.0208341;-34.9389991
30/07/2015;11:57;MACAXEIRA;AV NORTE ;EM BAIXO DO SEMAFORO 451 E/F A FABRICA DA MACAXEIRA ;COLISÃO;1;COLISÃO COM 1 VITIMA A ESPERA DO SAMU;Automóvel;-8.0134478;-34.9314809
30/07/2015;15:22;AFOGADOS;AV SUL ;NA IGREJA GRANDE ORIENTE DE Nº 1800 SENTIDO PONTE DO CABANGA;ATROPELAMENTO;1;AUTO ;Automóvel;-8.0790833;-34.9015689
02/07/2015;08:25;CAXANGÁ;AV CAXANGA ;E/F A UPA DA CAXANGA SENTIDO SUBURBIO ;COLISÃO;1;COLISÃO COM 1 VITIMA SOCORRIDA PELO SAMU ;Ciclista;-8.0300077;-34.9578068
08/07/2015;15:14;AFOGADOS;EST DOS REMEDIOS 490;APÓS POSTO TOTAL- SENTIDO ABDIAS DE CARVALHO;COLISÃO;1;01 AO - 01 BICICLETA;Ciclista;-8.0757133;-34.9073544
09/07/2015;19:03;IMBIRIBEIRA;RUA ARQUITETO LUIZ NUNES ;PROX A ALAGOA DO ARAÇA ;COLISÃO COM CICLISTA;1;;Ciclista;-8.0941243;-34.9113858
20/07/2013;22:09;MANGABEIRA;RUA DA MANGABEIRA ;PROXIMO A IGREJA BATISTA E O CLUBE MANGABEIRA;COLISÃO COM CICLISTA;3;AUTO - CICLISTA;Ciclista;-8.0248658;-34.905155
25/07/2015;20:20;PORTO DA MADEIRA;AV CIDADE DE MONTEIRO ;POR TRAS DO CONJUNTO RESIDENCIAL INOCOPE ;COLISÃO;1;MOTO E BICICLETA ;Ciclista;-8.0077745;-34.8876321
26/07/2015;05:11;MADALENA;RUA JOSE OSORIO ;EM FRENTE A BIG BEM;ATROPELAMENTO;1;ATROPELAMENTO DE UM CICLISTA ;Ciclista;-8.0533445;-34.906987
02/07/2015;13:10;PRADO;AV ENGENHEIRO ABDIAS DE CARVALHO ;SEMÁFORO 327 / SENTIDO CIDADE;COLISÃO;1;DOIS AUTOS E CINQUENTINHA;Ciclomotor;-8.0625333;-34.9160984
03/07/2015;23:16;BOA VIAGEM;AV DES JOSE NEVES ;PROX A FERREIRA PINTOS ANTES DO TUNEO DE ASESSO AO SHOPP RECIFE ;COLISÃO;1;AUTO MOTO ;Ciclomotor;-8.1215864;-34.9098784
04/07/2015;13:05;SANTO AMARO;AV CRUZ CABUGA ;E/F DO ARMAZEM CORAL ;COLISÃO;1;;Ciclomotor;-8.0504896;-34.879159
10/07/2015;07:25;IPSEP;RUA PROFESSOR JOSE VICENTE 505;EM FRENTE AO MERCADINHO CONVENSÃO;COLISÃO;1;COLISÃO ENTRE UMA MOTOCICLETA E UM ÔNIBUS;Ciclomotor;-8.1075767;-34.9245179
11/07/2015;10:09;ENCRUZILHADA;AV JOAO DE BARROS ;EM FRENTE AO COLÉGIO ETEPAM;COLISÃO;1;COLISÃO ENTRE AUTO E MOTOFCICLETA;Ciclomotor;-8.0391439;-34.8921973
13/07/2015;07:47;CAXANGÁ;AV CAXANGA ;EM BAIXO DO SEMAFORO 232 PROX AO TERMINAL DA CAXANGA ;COLISÃO;1;COLISÃO COM 1 VITIMA ESPERA DO SAMU;Ciclomotor;-8.0321245;-34.9542636
15/07/2015;00:31;BOA VIAGEM;AV CONSELHEIRO AGUIAR ;PROX A PRAÇA DE BOA VIAGEM;COLISÃO;1;COLISÃO ENTRE UMA MOTO E UM AUTO;Ciclomotor;-8.1313392;-34.9013919
15/07/2015;01:02;MADALENA;EST DOS REMEDIOS ;SEMAFORO 353;COLISÃO;1;COLISÃO COM VITIMA ENTRE UMA MOTO E UM AUTO;Ciclomotor;-8.0589322;-34.9072337
18/07/2015;22:03;JORDÃO;AV MARIA IRENE ;NA ENTRADA DA DELEGACIA MARIA IRENE ;COLISÃO;2;AUTO E UMA CINQUENTINHA ;Ciclomotor;-8.1411768;-34.9326664
20/07/2015;out/53;ENCRUZILHADA;AV BEBERIBE ;HA CEM METROS DA FERREIRA PINTO;COLISÃO;1;COLISÃO ENTE UM AUTO-PASSEIO E UMA MOTO COM VITIMA;Ciclomotor;-8.0062765;-34.8916876
21/07/2015;11:28;BOA VIAGEM;AV ENGENHEIRO DOMINGOS FERREIRA ;SMF 200 CRUZAMENTO COM TOME GISBSON;COLISÃO;1;COLISÃO ENTRE AUTO E CINQUENTINHA;Ciclomotor;-8.0987182;-34.8865861
24/07/2015;22:32;BOA VIAGEM;VIADUTO TANCREDO NEVES ;PRÓXIMO AO CARREFOUR;COLISÃO;1;AUTO E CICLOMOTOR;Ciclomotor;-8.1231636;-34.9108171
25/07/2015;11:27;AFOGADOS;EST DOS REMEDIOS ;EM FRENTE A FARMÁCIA SANTA MARIA;COLISÃO;1;COLISÃO ENTRE AUTO E 50CC COM VÍTIMA;Ciclomotor;-8.0796888;-34.9067187
26/07/2015;08:16;SANTO AMARO;AV JOAO DE BARROS ;PROX AO VIADUTO SENTIDO ENCRUZILHADA;COLISÃO;1;COLISAO DE ONIBUS E SHINERAY;Ciclomotor;-8.0456109;-34.889971
29/07/2015;00:00;CORDEIRO;AV INACIO MONTEIRO 311;AO LADO DO RESTAURANTE CHENGF;COLISÃO;1;AUTO E CINQUENTINHA ;Ciclomotor;-8.0481365;-34.9313682
01/07/2015;06:00;BOA VIAGEM;RUA BRUNO VELOSO ;CRUZ COM A PROFESSOR JOÃO DE MELO E/F ACADEMIA R2;COLISÃO;1;COLISÃO COM 1 VITIMA SOCORRIDA PELOS BOMBEIROS ;Motocicleta;-8.1213793;-34.9011773
01/07/2015;06:00;BOA VIAGEM;RUA BRUNO VELOSO ;CRUZ COM A PROFESSOR JOÃO DE MELO E/F ACADEMIA R2;COLISÃO;1;COLISÃO COM 1 VITIMA SOCORRIDA PELOS BOMBEIROS ;Motocicleta;-8.1213687;-34.9011451
01/07/2015;09:34;DOIS UNIDOS;AV HILDEBRANDO DE VASCONCELOS 657;"""E/F AO DEPOSITO DAGUA";"""COLISÃO";1;;Motocicleta;-8.0007146;-34.9037576
01/07/2015;17:04;IPUTINGA;RUA MINISTRO JOAO ALBERTO ;RUA POR TRÁS DO SUPERMERCADO ATACADÃO DA IPUTINGA;COLISÃO;1;02 MOTOS- 02 AUTOS;Motocicleta;-8.0294207;-34.944562
02/07/2015;11:21;SANTO AMARO;AV MILITAR ;POR TRAS DO HOSPITAL DA MARINHA SENTIDO SHOPPING TACARUNA ;COLISÃO;2;COLISÃO 2 VITIMAS A ESPERA DO SAMU ;Motocicleta;-8.0468219;-34.8743954
02/07/2015;21:30;BOA VIAGEM;AV CONSELHEIRO AGUIAR ;CRUZ COM A BRUNO VELOSO ;COLISÃO;1;AUTO E MOTO ;Motocicleta;-8.1217723;-34.8979211
03/07/2015;08:23;TORRE;RUA PADRE ANCHIETA ;CRUZAMENTO COM A RUA JOSÉ BONIFÁCIO;COLISÃO;1;COLISÃO COM VÍTIMA ENTRE UM CARRO E UMA MOTO;Motocicleta;-8.0471778;-34.9066544
03/07/2015;10/set;BOMBA DO HEMETÉRIO;RUA BOMBA DO HEMETERIO ;EM FRENTE A ESCOLA ESTADUAL PROFESSORMARDONE DE ANDRADE;COLISÃO;1;COLISÃO COM VITIMA;Motocicleta;-8.0207889;-34.9038649
03/07/2015;10:10;AREIAS;AV DR JOSE RUFINO 1318;PROX AO ARMAZEM NOVO LAR ;COLISÃO;1;COLISÃO COM 1 VITIMA SOCORRIDA PELO SAMU ;Motocicleta;-8.0907385;-34.9350724
03/07/2015;12:52;SANTO AMARO;RUA DOS PALMARES ;EM FRENTE AO COMANDO DA GUARDA CIVIL DO RECIFE;COLISÃO;1;AUTO E MOTO;Motocicleta;-8.0510446;-34.8858833
<br>;;CAXANGÁ;AV CAXANGA 675;CRUZAMENTO DA JOSE OSORIO COM CAXANGA- EM FRENTE A LOJA DE CADEIRA;COLISÃO;2;COLISÃO ENTRE DUAS MOTOS;Motocicleta;-8.0541625;-34.9142611
03/07/2015;22:07;SANTO AMARO;AV GOVERNADOR AGAMENON MAGALHAES 2997;SENTIDO OLINDA E ANTES DO VIADUTO JOÃO DE BARRO ;COLISÃO;1;AUTO E MOTO VT DA CTTU ESTA NO LOCAL N: 04;Motocicleta;-8.0486133;-34.8924695
04/07/2015;02:50;SÃO JOSÉ;RUA IMPERIAL ;PRÓXIMO A SECRETARIA DA FAZENDA;COLISÃO;2;COLISÃO ENTRE UM AUTO PASSEIO E UMA MOTO;Motocicleta;-8.0770757;-34.8978138
04/07/2015;23:43;CAMPO GRANDE;EST DE BELEM ;PROX A PRAÇA DE CAMPO E A IGREJA UNIVERSAL;COLISÃO;2;AUTO - MOTO;Motocicleta;-8.0322041;-34.8787862
05/07/2015;14:17;BONGI;RUA SANTA EDWIRGES ;EM FRENTE A FACUDADE NOVA ROMA ;COLISÃO;2;ENTRE AUTO E UMA MOTO;Motocicleta;-8.0666178;-34.9128449
05/07/2015;19:50;CORDEIRO;RUA DIANOPOLIS ;CRUZAMENTO COM A DIANOPOLIS CO AV PROF ESTEVO F DA COSTA PROX AO COLEGIO DARCI RIBEIRO ;COLISÃO;2;AUTO E MOTO ;Motocicleta;-8.0471353;-34.9187458
05/07/2015;23:36;BREJO DA GUABIRABA;AV VEREADOR OTACILIO AZEVEDO ;EM FRENTE AO MARRETÃO;COLISÃO;1;C/V ENTRE UMA MOTO E UM AUTO;Motocicleta;-7.9953493;-34.9262023
<br>;05:17;BEBERIBE;AV BEBERIBE ;EM FRENTE AO ARENA SHOW BAR;COLISÃO;1;COLISAO ENTRE UM AUTO E UMA MOTO ;Motocicleta;-8.0233758;-34.8938549
06/07/2015;07:34;BONGI;AV CONSUL VILARES FRAGOSO ;NA DA CAVALARIA POR TRAZ DA SECRETARIA DE SAUDE;COLISÃO;1;COLC/V;Motocicleta;-8.0667081;-34.9243462
06/07/2015;18:04;VASCO DA GAMA;RUA VASCO DA GAMA 252;PROX GAFIEIRA 13 DO VASCO;COLISÃO;1;ENTRE AUTO E MOTO ;Motocicleta;-8.015546;-34.918381
06/07/2015;18:32;IPUTINGA;RUA MAURICIO DE NASSAU ;ENF A IGREJA CONGREGAÇÃO CRISTAN DO BRASIL ;COLISÃO;1;DOIS E MOTO ;Motocicleta;-8.0380842;-34.9317813
06/07/2015;21:55;ÁGUA FRIA;AV BEBERIBE ;ENFR A LOJA ELEKTRA E MERCADO PUBLICO DE AGUA FRIA ;COLISÃO;1;DUAS MOTOS ;Motocicleta;-8.0250597;-34.8935115
07/07/2015;07:07;SÃO JOSÉ;RUA IMPERIAL 684;COLISÃO ENTRE CAMINHÃO E MOTO;COLISÃO;1;COLISÃO ENTRE CAMINHÃO E MOTO;Motocicleta;-8.0737508;-34.8876375
07/07/2015;08:12;AREIAS;AV RECIFE 3042;EM FRENTE A SÃO PAULO VEICULOS- SEMÁFORO 212;COLISÃO;1;COLISÃO ENTRE AUTO E MOTO C/V;Motocicleta;-8.1039495;-34.9277043
07/07/2015;13:54;IPUTINGA;AV CAXANGA ;EM FRENTE AO HIPER DA CAXANGÁ;COLISÃO;1;COLISÃO COM VÍTIMA ENTRE DOIS AUTOS;Motocicleta;-8.0394175;-34.9408257
07/07/2015;13:59;MADALENA;RUA JOSE OSORIO 464;EM FRENTE A LOJA NIU CARROS ;COLISÃO;1;COLISÃO ENTRE UM CARRO E UMA MOTO ;Motocicleta;-8.0538013;-34.9110478
<br>;15:15;BAIRRO DO RECIFE;RUA DA MOEDA ;C/RUA MARIZ E BARROS;COLISÃO;1;COLISÃO ENTRA DUAS MOTOCICLETAS C/ VITIMA;Motocicleta;-8.0646048;-34.8728317
08/07/2015;11:20;SÃO JOSÉ;AV DANTAS BARRETO ;CRUZ COM A RUA DO SÃO JOÃO ;COLISÃO;1;COLISÃO COM 1 VITIMA SOCORRIDA PELO SAMU ;Motocicleta;-8.0701179;-34.882375
09/07/2015;07:49;ESPINHEIRO;RUA QUARENTA E OITO ;PRAÇA DA FEB / ESCOLA WIZARD;COLISÃO;1;COLISÃO ENTRE AUTO/ CAMINHÃO/ MOTOCICLETA - BOMBEIROS NO LOCAL;Motocicleta;-8.0407906;-34.8945576
09/07/2015;07:50;GRAÇAS;RUA JOAQUIM NABUCO ;SENTIDO CAXANGA EM BAIXO DO SEMAFORO 498 E/F A ACADEMIA TRENO ;COLISÃO;1;COLISÃO COM 1 VITIMA ;Motocicleta;-8.0527868;-34.902277
09/07/2015;08:36;SANTO AMARO;AV GOVERNADOR AGAMENON MAGALHAES ;EM FRENTE AO SHOPPING TACARUNA- SENTIDO BV;COLISÃO;1;COLISÃO COM VÍTIMA ENTRE AUTO E MOTOCICLETA AUTO EVADIU-SE DO LOCAL;Motocicleta;-8.0364429;-34.8725367
09/07/2015;08:54;VASCO DA GAMA;RUA LUIZ CESARIO DE MELO ;PROX AO SESI E/F AO TERMINAL DE ONIBUS NOVA TORRE ;COLISÃO;1;COLISÃO COM 1 VITIMA ;Motocicleta;-8.0190625;-34.9222273
09/07/2015;09:53;SÃO JOSÉ;C SANTA RITA ;E/F AO ARMAZEM 16 EM BAIXO DO SEMAFORO 076;COLISÃO;1;COLISÃO COM 1 VITIMA ;Motocicleta;-8.069608;-34.8753208
09/07/2015;13:44;BOA VIAGEM;AV ENGENHEIRO DOMINGOS FERREIRA 80;AO LADO DO POSTO TOTAL ;COLISÃO;1;COLISAO DE MOTO E AUTO COM UMA VITIMA ;Motocicleta;-8.0908872;-34.8847729
09/07/2015;16:46;SANTO AMARO;RUA FREI CASSIMIRO ;RUA DO POMBAL;COLISÃO;1;COLISÃO ENTRE AUTO X MOTOCICLETA;Motocicleta;-8.0464182;-34.8805618
09/07/2015;16:56;ESPINHEIRO;AV CONS ROSA E SILVA ;NA ESQUINA DO HOSPITAL DO SERVIDORES;COLISÃO;1;AUTO E MOTO;Motocicleta;-8.0476133;-34.8969072
09/07/2015;19:07;TAMARINEIRA;AV NORTE ;PROX A MADEREIRA SÃO JUDAS TADEU ;COLISÃO;1;AUTO E MOTO ;Motocicleta;-8.0307965;-34.8987123
09/07/2015;20:40;BOA VIAGEM;RUA DHALIA ;PROX AO RESTAURANTE PAPA CAPIM E AO EXTRA BOM ;COLISÃO;1;AUTO E MOTO ;Motocicleta;-8.1187572;-34.900272
10/07/2015;14:13;BOA VIAGEM;AV BOA VIAGEM 1416;50 METROS APÓS O SEGUNDO JARDIM;COLISÃO ;1;COLISÃO ENTRE 2 AUTOS E UMA MOTO ;Motocicleta;-8.1034927;-34.8862106
10/07/2015;16:06;CAXANGÁ;AV CAXANGA ;EM FRENTE AO HSBC / SENTIDO CAMARAGIBE;COLISÃO;1;ONIBUS E MOTO;Motocicleta;-8.0529196;-34.9164605
11/07/2015;ago/16;ESTÂNCIA;RUA MORAIS E SILVA 237;RUA DA GARAGEM DE ONIBUS DA AGUAVERTUR;COLISÃO;1;COLISÃO COM VITIMA JA SOCORRIDA PELO SAMU-CONDUTOR DO VEICULO SE EVADIU PORÉM A PLACA E O PARA-CHO;Motocicleta;-8.0836509;-34.930687
12/07/2015;02:47;BOA VIAGEM;AV ENGENHEIRO DOMINGOS FERREIRA ;CRUZAMENTO COM A RUA ANTONIO FALCAO/PROXIMO AO CARREFOUR;COLISÃO;1;C/V ENTRE MOTO E UM AUTO;Motocicleta;-8.1157818;-34.8955393
13/07/2015;03:30;APIPUCOS;RUA DE APIPUCOS 1083;PROX AO AÇUDE DE APIPUCOS;COLISÃO;f;COLISAO ENTRE UMA MOTO E UM CAMINHAO;Motocicleta;-8.0210333;-34.9345386
13/07/2015;08:41;SANTO AMARO;AV GOVERNADOR AGAMENON MAGALHAES ;E/F AO INSTITUTO DE CRIMINALISTA ;ATROPELAMENTO ANIMAL;1;ATROPELAMENTO DE UM ANIMAL ENTRE MOTOCILISTA CONDUTOR SOCORRIDO PELO SAMU;Motocicleta;-8.0397893;-34.8794246
13/07/2015;16:49;BOA VIAGEM;RUA FELIX DE BRITO E MELO 0;NO CRUZAMENTO DO SEMÁFORO 551;COLISÃO;1;AUTO E MOTO;Motocicleta;-8.1167882;-34.8977414
13/07/2015;17:46;MADALENA;RUA BENFICA 257;EM CIMA DO TUNEL DA MADALENA ;COLISÃO;1;COLIÇÃO DE MOTO E AUTO SEGUNDO ORIENTADOR 1 JOSÉ JUSTINO O VEICULO SE EVADIO DO LOCAL ;Motocicleta;-8.0595961;-34.9019551
13/07/2015;18:24;CAMPO GRANDE;RUA ODORICO MENDES ;PROX AO CLUBE DAS PAZ ;COLISÃO;2;DOIS E MOTO ;Motocicleta;-8.0343315;-34.8809454
13/07/2015;19:37;SAN MARTIN;RUA ARSENIO CALACA ;PROX A CHESF ;COLISÃO;1;MOTO ATROPELOU UM ANIMAL ;Motocicleta;-8.0645941;-34.9294209
13/07/2015;20:28;CAXANGÁ;AV CAXANGA ;APOIS AO GONFE CLUB ;COLISÃO;1;AUTO E MOTO BT RICARDO LIMA ESTA NO LOCAL ;Motocicleta;-8.0330965;-34.9523377
14/07/2015;06:45;ESPINHEIRO;RUA QUARENTA E OITO 213;em frente a jaris proximo a farmacia big bem;COLISÃO;1;colisão com vitima já socorrida-a condutora do auto-passeio retirou o veiculo do local;Motocicleta;-8.0434012;-34.8914355
14/07/2015;06:51;SANTO AMARO;AV ENGENHEIRO AGAMENON DE MAGALHAES MELO ;EM FRENTE DA UPE;COLISÃO;1;SET/OLINDA;Motocicleta;-8.0437784;-34.8870367
14/07/2015;15:15;PINA;AV BOA VIAGEM ;EM FRENTE AO CHURRASCARIA BOI BRASA;COLISÃO;1;COLISÃO ENTRE AUTOMOVEL E MOTOCICLETA;Motocicleta;-8.0909722;-34.8819968
14/07/2015;15:48;PRADO;AV ENGENHEIRO ABDIAS DE CARVALHO ;EM FRENTE A FACULDADE ÉSTACIO ;COLISÃO;1;AUTO E MOTO;Motocicleta;-8.0623873;-34.9159321
14/07/2015;17:08;SANTO AMARO;AV VISCONDE DE SUASSUNA 440;E/F AO SENAC;COLISÃO;1;01 AUTO- 01 MOTO;Motocicleta;-8.0529913;-34.8856822
14/07/2015;17:51;CAJUEIRO;RUA MARIA CRISTINA TASSO DE SOUZA ;COM RUA SUDESTE / PROX AO MERCADINHO CAPIBARIBE E A ACADEMIA DA CIDADE;COLISÃO;1; AUTO E MATO;Motocicleta;-8.0138355;-34.8841479
14/07/2015;19:21;IMBIRIBEIRA;AV MARECHAL MASCARENHAS DE MORAES ;ENF AO AEROPORTO DA IMBIRIBEIRA ;COLISÃO;1;AUTO E MOTO ;Motocicleta;-8.1310232;-34.9160528
15/07/2015;ago/59;PARNAMIRIM;AV FLOR DE SANTANA 113;HA 30 METROS DA LANCHONETE BURGUER KING;COLISÃO;2;COLISÃO COM 2 VITIMAS ENTRE AUTO-PASSEIO E UMA MOTO;Motocicleta;-8.0348069;-34.9133706
15/07/2015;09:19;CAMPO GRANDE;EST DE BELEM ;EM FRENTE A PÇA DE CAMPO GRANDE;COLISÃO;1;COLISÃO ENTRE AUTO E MOTOCICLETA COM VITIMA;Motocicleta;-8.0319757;-34.8772332
15/07/2015;09:22;SÃO JOSÉ;RUA VIDAL DE NEGREIROS ;EM FRENTE DA IGREJA DE SÃO JOSE E DO TRE;COLISÃO;2;COLCOM DUAS VITIMA JA SOCORRIDA;Motocicleta;-8.0692442;-34.8805591
15/07/2015;10:53;ESTÂNCIA;AV RECIFE 3856;NA ENTRADA DO CONJUNTO INES ANDREAZA ;COLISÃO;1;COLISÃO COM 1 VITIMA A ESPERA DO SAMU ;Motocicleta;-8.0994565;-34.9282193
15/07/2015;10:55;MACAXEIRA;AV NORTE ;EM FRENTE AO PARQUE MACAXEIRA;COLISÃO;1; ;Motocicleta;-8.0157479;-34.9311268
15/07/2015;11:20;ARRUDA;AV BEBERIBE 1772;APÓS O MERCADÃO DO PETROLEO;COLISÃO;1;COLISÃO ENTRE DOIS AUTOS;Motocicleta;-8.0266108;-34.8931843
15/07/2015;16:04;BOA VIAGEM;RUA ERNESTO DE PAULA SANTOS ;E/F DO GOLDEN TULIP HOTEL ;COLISÃO;1;COLISAO DE MOTO E CAMINHAO COM UMA VITIMA ;Motocicleta;-8.1251923;-34.8976099
16/07/2015;16:00;CASA AMARELA;AV NORTE ;EM FRENTE A RECIFRICA PADRÃO SENTIDO CIDADE ;COLISÃO ;2;COLISÃO ENTRE UM ONIBUS E UMA MOTO;Motocicleta;-8.0213945;-34.9173671
16/07/2015;20:19;AREIAS;AV RECIFE ;PROX AO POSTO BR DA ENTRADA DE SAN-MARTINS ;COLISÃO;1;AUTO E MOTO ;Motocicleta;-8.0798587;-34.9337983
17/07/2015;08:54;TEJIPIÓ;AV DR JOSE RUFINO ;EM CIMA DA PONTE DO RIO TEJIPIO;COLISÃO;1;COLCOM VITIMA SET/JABOATÃO P/BR 101;Motocicleta;-8.0910386;-34.9576538
17/07/2015;09:49;BOA VIAGEM;AV BOA VIAGEM ;300 METROS APÓS O PARQUE DONA LINDU- FAIXA DA DIREITA;COLISÃO;1;COLISAO COM VITIMA ENTRE MOTO E AUTO;Motocicleta;-8.1377781;-34.9020517
17/07/2015;14:43;IBURA;AV RECIFE ;ENTRADA DO IBURA SENTIDO CEASA;COLISÃO;1;COLISÃO ENTRE AUTO E MOTOCICLETA COM VÍTIMA;Motocicleta;-8.1068385;-34.927361
17/07/2015;19:23;SAN MARTIN;AV GENERAL SAN MARTIN 144;PROX A ESCOLA ADENTISTA SENTIDO SAN-MARTIN;COLISÃO;1;AUTO E MOTO ;Motocicleta;-8.0510606;-34.9214172
17/07/2015;20:21;ÁGUA FRIA;AV BEBERIBE 2672;ENFR AO COLEGIO PEDRO AUGUSTO ;COLISÃO;1;AUTO E MOTO ;Motocicleta;-8.0152432;-34.8902929
18/07/2015;00:05;CAXANGÁ;AV CAXANGA ;NO CRUSAMENTO COM A RIBEIRO PESSOA;COLISÃO;F;COLISÃO ENTRE UM AUTO E UMA MOTO COM VITIMA FATAL;Motocicleta;-8.0299201;-34.9579704
18/07/2015;08:20;DERBY;AV GOVERNADOR AGAMENON MAGALHAES ;CRUZ COM A RUA DOM BOSCO E/F AO COLEGIO CONTATO ;COLISÃO;1;COLISÃO COM 1 VITIMA SOCORRIDA PELO SAMU;Motocicleta;-8.0538172;-34.8963976
19/07/2015;17:21;SANTO ANTÔNIO;AV MARTINS DE BARROS ;EM FRENTE AO MINISTÉRIO PÚBLICO;COLISÃO;1;COLISÃO AUTO X MOTO;Motocicleta;-8.0630432;-34.876399
19/07/2015;18:30;AREIAS;RUA JUPIATA ;OS MESMO ESTÃO NA RUA NOVA HORIZONTE PROX AO TERMINAL DE JARDIM ANCHOA E PADARIA SOLIMÕES ;COLISÃO;1;AUTO E MOTO ;Motocicleta;-8.1006195;-34.9377841
20/07/2015;06:57;TORRÕES;AV ENGENHEIRO ABDIAS DE CARVALHO ;SEMAFORO 272-SENTIDO CENTRO;COLISÃO;1;COLISÃO COM VITIMA ENTRE UMA MOTO E UM AUTO-PASSEIO;Motocicleta;-8.0637018;-34.9347156
20/07/2015;07:43;CIDADE UNIVERSITÁRIA;RUA PROFESSOR ANTONIO COELHO 522;EDF/MARCELO -POR TRAS DA CAXANGA VEICULO;COLISÃO;1;COLCOM V/T;Motocicleta;-8.0422964;-34.9453881
20/07/2015;08:01;CASA FORTE;AV DEZESSETE DE AGOSTO 1732;E/F AO RESTAURANTE REAL BOTEQUIM ;COLISÃO;F;COLISÃO COM 1 VITIMA FATAL ;Motocicleta;-8.03371;-34.9223976
20/07/2015;09:49;DERBY;AV GOVERNADOR AGAMENON MAGALHAES ;SENTIDO BOA VIAGEM E/F AO CLUBE PORTUGUES ;COLISÃO;1;COLISÃO 1 VITIMA SOCORRIDO PELO SAMU ;Motocicleta;-8.0506994;-34.8948205
20/07/2015;19:00;BOA VIAGEM;RUA BALTAZAR PASSOS ;PROX AO PARQUE DE DONA LINDU ;COLISÃO;2;MOTO E AUTO ;Motocicleta;-8.1450002;-34.9053776
21/07/2015;18:08;BOA VIAGEM;AV ENGENHEIRO DOMINGOS FERREIRA ;EM FRENTE O ARMAZEN BEIRA MAR Nº 40 ;COLISÃO;1;AUTO E MOTO;Motocicleta;-8.1312675;-34.9022555
22/07/2015;08:00;BOA VIAGEM;RUA BARAO DE SOUZA LEAO 626;PROX AO BANCO DO BRASIL ;COLISÃO;1;COLISÃO COM 1 VITIMA SOCORRIDO PELO SAMU ;Motocicleta;-8.1317641;-34.9054071
22/07/2015;08:34;IBURA;AV DOIS RIOS 127;300 METROS APÓS O NÚCLEO DA POLICIA- SENTIDO IBURA;COLISÃO;1;COLISAO- COM VITIMA- CAMINHAO E AUTO;Motocicleta;-8.1100091;-34.9363893
22/07/2015;18:38;CORDEIRO;RUA MAURICIO DE NASSAU ;CRUZAMENTO COM A PROFESSOR ESTEVO;COLISÃO;1;AUTO E MOTO ;Motocicleta;-8.047215;-34.9188209
23/07/2015;03:07;ARRUDA;AV BEBERIBE ;PROX AO SEM NUMERO 492;COLISÃO;2;ONIBUS - MOTOCICLETA;Motocicleta;-8.0251978;-34.8935169
23/07/2015;06:40;CASA AMARELA;RUA CONS NABUCO 271;PROX AO BOM PREÇO- E EM FRENTE AO EDF FLAVUS;COLISÃO;1;COLISÃO ENTRE AUTO E MOTO- C/V;Motocicleta;-8.0295695;-34.9163371
23/07/2015;12:13;TEJIPIÓ;RUA FALCAO DE LACERDA 299;PROX AO SMF 411;COLISÃO;1;COLISÃO ENTRE AUTO E MOTO COM VÍTIMA;Motocicleta;-8.0917449;-34.9604219
23/07/2015;12:23;IPSEP;RUA JEAN EMILE FAVRE 422;EM FRENTE A FACULDADE BOA VIAGEM;COLISÃO;1;AUTO E MOTO;Motocicleta;-8.1069448;-34.9148324
23/07/2015;13:56;BEBERIBE;AV BEBERIBE ;E/F DO SEMFORO 559;COLISÃO;1;COLISAO DE MOTO CAMINHAO ;Motocicleta;-8.005963;-34.8920739
23/07/2015;16:05;MADALENA;AV VISCONDE DE ALBUQUERQUE 836;E/F DA PRAÇA EÇA DE QUEIROZ ;COLISÃO;1;COLISAO DE AUTO E MOTO COM UMA VITIMA ;Motocicleta;-8.0508242;-34.9065498
23/07/2015;18:27;CABANGA;AV SUL ;EM BAIXO DO PONTILHÃO DO CABANGA SENTIDO CIDADE;COLISÃO;F;AUTO E MOTO;Motocicleta;-8.0762046;-34.8928571
23/07/2015;19:25;NOVA DESCOBERTA;AV VEREADOR OTACILIO AZEVEDO ;PROX A DELEGACIA DA MACAXEIRA ;COLISÃO;1;MOTO AUTO E ONIBUS ;Motocicleta;-7.9921831;-34.9286968
24/07/2015;12:41;MUSTARDINHA;AV MANOEL GONCALVES DA LUZ 65;E/F DA PANIFICADORA CRUZ DE CRISTO ;COLISÃO;1;COLISAO DE MOTO E AUTO COM UMA VITIMA ;Motocicleta;-8.0654546;-34.9167663
24/07/2015;16:25;CASA FORTE;AV DEZESSETE DE AGOSTO ;EM FRENTE AO POSTO DISLUB;COLISÃO;1;COLISÃO ENTRE UM AUTO E UMA MOTO ;Motocicleta;-8.0294473;-34.9257892
24/07/2015;20:33;CAJUEIRO;AV SEBASTIAO SALAZAR 450;PROX A IGRAJA CATOLICA DE CAJUEIRO ;COLISÃO;1;AUTO E MOTO ;Motocicleta;-8.010303;-34.8851699
25/07/2015;07:09;MADALENA;AV CAXANGA 279;EM FRENTE AO BANCO SANTANDER- SENTIDO RECIFE- NA FAIXA DO BRT;ATROPELAMENTO ANIMAL;1;ATROPELAMENTO DE ANIMAL- MOTOQUEIRO ANIMAL;Motocicleta;-8.0558303;-34.9115467
26/07/2015;;JARDIM SÃO PAULO;AV RECIFE ;CRUZAMENTO COM A AV SAN MARTIN;COLISÃO;1;C/V ENTRE AUTO E MOTO;Motocicleta;-8.0795135;-34.9338949
26/07/2015;23:03;BOA VIAGEM;RUA BALTAZAR PASSOS ;CRUZ COM A SA E SOUZA ;COLISÃO;1;MOTO E AUTO ;Motocicleta;-8.1431469;-34.9090147
27/07/2015;13:24;IMBIRIBEIRA;AV MARECHAL MASCARENHAS DE MORAES ;NA FRENTE DO GERALDÃO SENTIDO CIDADE ;COLISÃO;1;COLISÃO ENTRE UMA MOTO E DOIS AUTOS ;Motocicleta;-8.1169396;-34.9134028
27/07/2015;15:15;DERBY;AV GOVERNADOR AGAMENON MAGALHAES ;EM FRENTE A PRAÇA DO DERBY SENTIDO BOA VIAGEM;COLISÃO;1;AUTO E MOTO;Motocicleta;-8.056558;-34.8981947
27/07/2015;17:53;CORDEIRO;AV INACIO MONTEIRO ;NA ESQUINA DA CASA DE FESTA 341;COLISÃO;1;COLISAO E MOTO E AUTO COM UMA VITIMA ;Motocicleta;-8.048341;-34.9314755
28/07/2015;18:17;MADALENA;AV CAXANGA ;SEMAFARO 274- SENTIDO CIDADE;COLISÃO;1;COLISAO ENTRE AUTO E MOTO;Motocicleta;-8.0528373;-34.916946
28/07/2015;19:22;CAMPO GRANDE;RUA PROFESSOR FRANCISCO DA TRINDADE 290;PROX AO CLUB DAS PAZ ;COLISÃO;1;AUTO E MOTO ;Motocicleta;-8.0347166;-34.8781854
28/07/2015;22:32;IMBIRIBEIRA;RUA ITACARI ;CRUZAMENTO DA RUA ITACARI COM A RUA CACHOEIRA ;COLISÃO;2;VEICULO SOB PERSEGUIÇÃO COLIDE COM UMA MOTO E UM AUTO PASSEIO VT DA POLICIA ESTA NO LOCAL;Motocicleta;-8.1082459;-34.9149692
29/07/2015;21:58;AREIAS;AV RECIFE ;PROX AO BOM PREÇO DE AREAS SENT AEROPORTO ;COLISÃO;1;ONIBUS E MOTO ;Motocicleta;-8.0973639;-34.9286807
30/07/2015;08:29;BOA VIAGEM;AV BOA VIAGEM ;CRUZ COM A TOME GIBSON E/F AO ED NOSSA SENHORA DE COPACABANA ;COLISÃO;1;COLISÃO COM VITIMAS ;Motocicleta;-8.0997326;-34.8844457
30/07/2015;09:50;IPUTINGA;RUA MAURICIO DE NASSAU 287;NA LOMBADA ELETRONICA- E EM FRENTE AO MERCADINHO RENDE MAIS;COLISÃO;1;COLISÃO ENTRE AUTO E MOTO C/V;Motocicleta;-8.0373539;-34.9336562
30/07/2015;12:31;CAXANGÁ;RUA JOSE OSORIO 927;E/F SENA MULTIMAR;COLISÃO;1;COLISAO AUTO E MOTO;Motocicleta;-8.0540563;-34.9129817
30/07/2015;20:36;CAXANGÁ;AV CAXANGA ;SEM 281 AV JOAQUIM RIBEIRO COM A R RIBEIRO PESSOA;COLISÃO;1;AUTO E MOTO;Motocicleta;-8.0300635;-34.9580455
31/07/2015;02:45;ÁGUA FRIA;EST VELHA DE AGUA FRIA ;R BOMBA DO HEMETERIO PRO POSTO BR;COLISÃO;1;AUTO - MOTO;Motocicleta;-8.0238964;-34.8972881
31/07/2015;07:48;AFOGADOS;AV SUL ;EM FRENTE A ENTRADA DA RUA NICOLAU PEREIRA;COLISÃO;1;COLISÃO COM VÍTIMA ENTRE UM AUTO E UMA MOTO;Motocicleta;-8.079556;-34.9043691
31/07/2015;09:23;SAN MARTIN;RUA JOSE VELOSO ;AO LADO DO SESC;COLISÃO;1;COLISÃO AUTO E MOTO- C/V;Motocicleta;-8.0657255;-34.9272028
31/07/2015;15:52;HIPÓDROMO;EST DE BELEM 687;EM FRENTE A PIZZARIA PACIRA;COLISÃO;1;COLISÃO ENTRE UM AUTO E UMA MOTO;Motocicleta;-8.0337605;-34.8856875
15/07/2015;15:31;ARRUDA;AV BEBERIBE ;BOM PREÇO ARRUDA;COLISÃO;1;COLISÃO ENTRE AUTO E MOTO C/ VÍTIMA;Motocicleta;-8.0268764;-34.8931307
15/07/2015;15:54;BOA VISTA;RUA JOAO FERNANDES VIEIRA ;EM FRENTE AO ANTIGO COLEGIO NOBREGA ;COLISÃO;1;COLISAO ENTRE UMA MOTO E UM AUTO C/ VITIMA ;Motocicleta;-8.0567306;-34.8884127
01/07/2015;05:40;IPSEP;AV RECIFE ;EM FRENTE A PIZZARIA ATLANTICO SENTIDO SUBURBIO;COLISÃO;1;COLISÃO COM 1 VITIMA SENDO ATENDIDO NO LOCAL;Outros;-8.1110978;-34.9265456
01/07/2015;09:05;ROSARINHO;AV NORTE ;CRUZ AV SANTOS DUMONT;COLISÃO;1;COLISAO ENTRE DOIS AUTOS E UM ONIBUS;Outros;-8.0334843;-34.8964539
03/07/2015;12:43;IMBIRIBEIRA;AV MARECHAL MASCARENHAS DE MORAES ;EM FRENTE A FERREIRA PINTO / SENT AEROPORTO;COLISÃO;;;Outros;-8.0853637;-34.9071425
04/07/2015;07:40;SANTO ANTÔNIO;AV DANTAS BARRETO ;EM FRENTE A IGREJA DO CARMO;COLISÃO;3;COLISÃO ENTRE UM AUTOMOVEL E UM ÔNIBUS;Outros;-8.0659167;-34.8791295
04/07/2015;22:45;BOA VISTA;RUA GERVASIO PIRES ;CRUZ RUA DO PRINCIPE;COLISÃO;3;ENTRE MICRO ONIBUS - ONIBUS ;Outros;-8.0574371;-34.8849874
06/07/2015;19:45;ARRUDA;AV BEBERIBE ;ENF AO POSTO PETROBRAS \ SENT BEBERIBE ;ATROPELAMENTO;1;ONIBUS;Outros;-8.0283265;-34.8928463
01/07/2015;13:50;BOA VIAGEM;RUA VISCONDE DE JEQUITINHONHA ;E/F DO PONTEIO AO LADO DO SÓ CALDINHO ;ATROPELAMENTO;1;ATROPELAMENTO COM UMA VITIMA ;Pedestre;-8.1301948;-34.9024513
01/07/2015;15:50;JARDIM SÃO PAULO;AV SAO PAULO ;PRAÇA EL SALVADOR/FARMÁCIA BIG BEN;COLISÃO;1;COLISÃO ENTRE AUTO E MOTO;Pedestre;-8.0806521;-34.9403429
02/07/2015;17:18;MACAXEIRA;AV NORTE ;EM FRENTE A ACADEMIA DA CIDADE;ATROPELAMENTO;1;;Pedestre;-8.0168368;-34.9294907
02/07/2015;21:07;CAXANGÁ;AV CAXANGA ;NA ENTRADA DA BRASILITE \ ENF A IGREJA PAZ E VIDA ;COLISÃO;1;ATROPELAMENTO ;Pedestre;-8.03469;-34.9494946
04/07/2015;12:12;SANTO ANTÔNIO;AV GUARARAPES ;COM AV DANTAS BARRETO;ATROPELAMENTO;1; ;Pedestre;-8.0638293;-34.8784697
04/07/2015;13:26;ESTÂNCIA;AV RECIFE ;EM FRENTE AO HIPER;ATROPELAMENTO;1; ;Pedestre;-8.0971143;-34.9285895
05/07/2015;18:03;SÃO JOSÉ;AV MARTINS DE BARROS ;DENTRO DO CAIS DE SANTA RITA ;ATROPELAMENTO;1;ATROPELAMENTO DE PEDESTRE ;Pedestre;-8.06802;-34.8747253
06/07/2015;14:07;ILHA JOANA BEZERRA;AV BEIRA RIO ;E/F DO FORUM PAULO GUERRA ;ATROPELAMENTO;1;ATROPELAMENTO COM UMA VITIMA ;Pedestre;-8.0698099;-34.8944342
08/07/2015;10:51;JARDIM SÃO PAULO;AV PIRACICABA ;E/F AO TERMINAL DE ONIBUS DE JARDIM SÃO PAULO ;ATROPELAMENTO;1;ATROPELAMENTO PEDRESTE SOCORRIDO PELO SAMU ;Pedestre;-8.0779679;-34.9434167
01/07/2015;12:56;SANTO AMARO;AV GOVERNADOR AGAMENON MAGALHAES ;PROX DO VIADUTO DA AV NORTE SENT CIDADE;ATROPELAMENTO;1;ONIBUS E PEDESTRE;Pedestre;-8.0420361;-34.8843437
09/07/2015;07:08;ESPINHEIRO;RUA CONS PORTELA ;SEMAFORO 011;COLISÃO;2;COLISÃO COM VITIMA ENTRE UMA MOTO E UM AUTO-PASSEIO E UM ATROPELAMENTO;Pedestre;-8.0414572;-34.8938119
10/07/2015;13:03;ILHA DO RETIRO;RUA SPORT CLUBE DO RECIFE ;SUBIDA DO TÚNEO CHICO SCIENCE;ATROPELAMENTO;2;ATROPELAMENTO DE PEDESTRE;Pedestre;-8.061803;-34.9014455
10/07/2015;16:56;CASA AMARELA;AV NORTE ;AO LADO DO MOTEL VIA NORTE ;ATROPELAMENTO;1;ATROPELAMENTO DE PEDESTRE;Pedestre;-8.0274394;-34.9036127
10/07/2015;23:41;CAXANGÁ;AV CAXANGA ;EM FRENTE A FIAT ITALIANA SENTIDO CIDADE;COLISÃO;2;C/V ENTRE ONIBUS E TAXI;Pedestre;-8.0368147;-34.9456429
13/07/2015;09:45;TOTÓ;AV LIBERDADE ;ESQUINA COM RUA JUVÊNCIO MÁRCIO CUNHA;ATROPELAMENTO;1;ATROPELAMENTO;Pedestre;-8.0810405;-34.9685195
13/07/2015;18:10;SANTO ANTÔNIO;RUA PRINCESA IZABEL ;AO LADO DA FACULDADE DE DIREITO;ATROPELAMENTO;F;ÔNIBUS ATROPELOU UM PEDESTRE;Pedestre;-8.0581275;-34.8822087
14/07/2015;09:24;BOA VISTA;AV CONDE DA BOA VISTA ;CRUZAMENTO COM SOLEDADE SEMÁFORO 025;ATROPELAMENTO;1;ATROPELAMENTO;Pedestre;-8.0575459;-34.8899442
15/07/2015;16:03;VÁRZEA;AV CAXANGA ;SENTIDO CAMARAGIBE EM FRENTE A ACADEMIA HAIBER;ATROPELAMENTO;1;ATROPELAMENTO MOTO E PEDESTRE ;Pedestre;-8.0411066;-34.9380469
16/07/2015;10:48;PAISSANDU;AV GOVERNADOR AGAMENON MAGALHAES ;SEMAFORO 069;ATROPELAMENTO;1;ATROPELAMENTO COM VITIMA ESPERANDO ATENDIMENTO DO SAMU;Pedestre;-8.0623315;-34.8973363
17/07/2015;09:34;AFOGADOS;RUA SAO MIGUEL 1050;EM FRENTE DA SENO CONSTRUTORA ;ATROPELAMENTO;1;ATROPELAMENTO COM UMA VITIMA;Pedestre;-8.080743;-34.9162433
17/07/2015;12:28;CORDEIRO;AV CAXANGA ;EM FRENTE A CAIXA ECONÔMICA / LOCALIZA VEÍCULOS;ATROPELAMENTO;1;ATROPELAMENTO- VÍTIMA AGUARDANDO SOCORRO;Pedestre;-8.0521069;-34.9182522
17/07/2015;16:28;BAIRRO DO RECIFE;AV MILITAR ;ROTATÓRIA POSTO SHEL;ATROPELAMENTO;1;MOTOCICLETA E PEDESTRE;Pedestre;-8.0518307;-34.8715496
19/07/2015;23:40;BEBERIBE;AV BEBERIBE ;NA PRAÇA DA CONVENÇAO;ATROPELAMENTO;1;MOTO TITAN ;Pedestre;-8.002635;-34.8974168
20/07/2015;09:07;CORDEIRO;AV CAXANGA ;SENTIDO CIDADE E/F AO PARQUE DE EXPOSIÇÃO DO CORDEIRO ;ATROPELAMENTO;2;ATROPELAMENTO COM 2 VITIMAS SOCORRIDOS PELO SAMU ;Pedestre;-8.0469919;-34.9270874
21/07/2015;07:55;DERBY;AV GOVERNADOR AGAMENON MAGALHAES ;PÇA DO DERBY;ATROPELAMENTO;1;ATROPELAMENTO MOTOCICLETA PEDESTRE - GM WALLACE NO LOCAL - HT 01;Pedestre;-8.0563296;-34.8982
22/07/2015;13:33;CASA AMARELA;EST DO ARRAIAL ;PROX DO COLEGIO DOM VITAL E DO MERCADO DE CASA AMARARELA;ATROPELAMENTO;1;ATROPELAMENTO COM UMA VITIMA ;Pedestre;-8.0272084;-34.9185446
22/07/2015;21:56;CASA AMARELA;AV NORTE ;EM FRENTE A UPA DO MORRO DA CONCEIÇÃO;ATROPELAMENTO;1;ATROPELAMENTO A UM PEDESTRE;Pedestre;-8.0214423;-34.9169996
25/07/2015;13:14;CORDEIRO;AV CAXANGA ;LADO OPOSTO A EXPOSIÇÃO DE ANIMAIS;ATROPELAMENTO;1;ATROPELAMENTO MOTOCICLETA X PEDESTRE - SAMU NO LOCAL;Pedestre;-8.047045;-34.9274254
37/07/2015;10/jun;BOA VISTA;AV CONDE DA BOA VISTA 1424;AO LADO DO EDIFICIO PALMIRA;ATROPELAMENTO;1;ATROPELAMENTO COM VITIMA ;Pedestre;-8.0563933;-34.8933613
30/07/2015;21:24;PRADO;AV ENGENHEIRO ABDIAS DE CARVALHO 1480;ENFR A BIG CAR E FACUDADE ESTACIO ;ATROPELAMENTO;1;ONBUS E PEDESTRE ;Pedestre;-8.0624271;-34.914642
31/07/2015;22:24;CAXANGÁ;AV CAXANGA ;ENFR AO GOLF CLUB SENTIDO CIDADE ;ATROPELAMENTO;1;MOTO E PEDESTRE ;Pedestre;-8.0344351;-34.9498916
03/06/2015;11:15;AREIAS;AV DR JOSE RUFINO ;EM BAIXO AO VIA DUTO DO MACRO- EM FRENTE A SOCORRO DOCES E SALGADOS;COLISÃO;2;COLISAO C/V;Automóvel;-8.0870181;-34.9312663
04/06/2015;08:58;IPSEP;RUA JEAN EMILE FAVRE ;E/F A PADARIA PAN SABOR Nº 1712;COLISÃO;1;COM UMA VÍTIMA;Automóvel;-8.1147569;-34.9238178
06/06/2015;00:36;PARNAMIRIM;RUA DR JOSE DE GOES ;NA SUBIDA DO VIADUTO EM FRENTE AO GUANHAMUM GIGANTE;CHOQUE;1;;Automóvel;-8.0361295;-34.9103343
06/06/2015;03:40;IMBIRIBEIRA;AV MARECHAL MASCARENHAS DE MORAES 1043;EM FRENTE A MEIRA LINS;CAPOTAMENTO;1;CAPOTAMENTO DE UM VEICULO E QUEDA DE UMA ARVORE ;Automóvel;-8.0926372;-34.9087518
06/06/2015;04:38;BOA VIAGEM;AV BOA VIAGEM 6688;CAPOTAMENTO ;CAPOTAMENTO;1;CAPOTAMENTO DE UM VEICULO ;Automóvel;-8.1472677;-34.9061877
07/06/2015;00:45;AFOGADOS;RUA VINTE E UM DE ABRIL ;PROX A ESTAÇAO IMPIRANGA;COLISÃO;1;COLISAO ENTRE DOIS AUTOS;Automóvel;-8.0764702;-34.9131882
07/06/2015;09:02;ARRUDA;RUA DAS MOCAS 839;SEMAFORO 472;COLISÃO;1;COLISÃO ENTRE DOIS AUTO C/V;Automóvel;-8.0214264;-34.886511
07/06/2015;12:12;CABANGA;AV SUL ;SEMAFARO 260;COLISÃO;1;COLISAO ENTRE AUTOS ;Automóvel;-8.0778909;-34.8978218
12/06/2015;11:01;AREIAS;AV RECIFE 936;CHURRASCARIA PAJUSSARA;COLISÃO;1; ;Automóvel;-8.094581;-34.9289918
12/06/2015;16:00;CASA FORTE;RUA NESTOR SILVA ;COM A RUA AFONSO DE ALBUQUERQUE/ POR TRÁS DO HIPER DE CASA FORTE;COLISÃO;1;DOIS AUTOS;Automóvel;-8.0396751;-34.9132821
13/06/2015;06:15;ARRUDA;AV PROFESSOR JOSE DOS ANJOS ;CRUZAMENTO COM A AV BEBERIBE;COLISÃO;1;COLISÃO ENTRE AUTOS;Automóvel;-8.0279281;-34.8929161
13/06/2015;07:13;BOA VIAGEM;AV CONSELHEIRO AGUIAR ;EM FRENTE AO EXTRA;COLISÃO;1;COLISÃO ENTRE DOIS AUTOMOVEIS;Automóvel;-8.1047726;-34.8893809
17/06/2015;08:45;IBURA;AV DOIS RIOS ;E/F AO NÚCLEO;COLISÃO;1;COM UMA VÍTIMA;Automóvel;-8.1105269;-34.936974
21/06/2015;00:00;BOA VIAGEM;AV BOA VIAGEM ;CRUZAMENTO COM ARMINDO MOURA;COLISÃO;1;COLISÃO ENTRE DOIS OUTOS;Automóvel;-8.1510752;-34.9078774
21/06/2015;00:08;BOA VIAGEM;AV CONSELHEIRO AGUIAR ;SEMÁFORO 140 / CRUZAMENTO COM A PEREIRA DA COSTA;COLISÃO;1;COLISÃO ENTRE DOIS AUTOS COM VÍTIMA;Automóvel;-8.0954759;-34.8846334
21/06/2015;03:58;MADALENA;AV ENGENHEIRO ABDIAS DE CARVALHO ;CRUZAMENTO COM AV ESTRADA DOS REMÉDIOS // SEMÁFORO 052;COLISÃO;1;COLISÃO ENTRE UM AUTO PASSEIO E UM TÁXI COM VÍTIMA;Automóvel;-8.0617101;-34.9075931
23/06/2015;10:13;CAMPO GRANDE;EST DE BELEM ;E/F AO CLÉGIO EPON( SEMÁFORO Nº 201);COLISÃO;1;COM UMA VÍTIMA.;Automóvel;-8.0357152;-34.8885226
26/06/2015;23:34;IMBIRIBEIRA;RUA BARAO DE SOUZA LEAO ;EMBAIXO DO PONTILHÃO DO METRO;COLISÃO;1;ONIBUS - AUTO;Automóvel;-8.1328182;-34.9143147
26/06/2015;23:53;BOA VIAGEM;RUA BARAO DE SOUZA LEAO ;ENF A POUSADA AEROPORTO ;COLISÃO;1;ENTRE DOIS AUTO ;Automóvel;-8.1324624;-34.9154145
27/06/2015;08:36;CAMPO GRANDE;EST DE BELEM ;PROX À IGREJA BATISTA ;CHOQUE;1;VEICULO CHOCOU SE CONTRA UM MURO;Automóvel;-8.0368705;-34.8904699
30/06/2015;08:18;BOA VISTA;RUA DA AURORA 631;E/F A ASSEMBLÉIA LEGISLATIVA;COLISÃO;1;COM UMA VÍTIMA JÁ SOCORRIDA;Automóvel;-8.0586301;-34.8793998
09/06/2015;10:15;DOIS IRMÃOS;RUA MANUEL DE MEDEIROS 314;UFRPE;COLISÃO COM CICLISTA;1;COLISÃO ENTRE AUTO E BICICLETA;Ciclista;-8.0193069;-34.9538827
11/06/2015;16:40;ENCRUZILHADA;AV NORTE ;EM FRENTE O BANCO DO BRASIL SENTIDO ENCRUZILHADA;COLISÃO;1;AUTO ÔNIBUS E BICICLETA ;Ciclista;-8.0388465;-34.8911646
15/06/2015;23:24;AREIAS;AV RECIFE ;ENFR AO IPER BOM PREÇO SENTIDO A JUSTIÇA FEDERAL ;COLISÃO COM CICLISTA;F;;Ciclista;-8.097826;-34.9284232
21/06/2015;13:28;JARDIM SÃO PAULO;AV RECIFE ;SAÍDA DE JARDIM SÃO PAULO - VT 15 NO QTH;COLISÃO COM CICLISTA;1;COLISÃO ENTRE MOTOCICLETA E CICLISTA - VITIMA ( MOTO ) SENDO SOCORRIDA PELOS BOMBEIROS;Ciclista;-8.0826524;-34.9330902
21/06/2015;22:24;AREIAS;AV RECIFE ;PROX AO HIPER BOM PREÇO \ SEMAFORO 494;COLISÃO;1;ENTRE UMA CHINERAY E UM AUTO ;Ciclista;-8.096254;-34.9287826
23/06/2015;09:34;TORRE;AV BEIRA RIO ;SEMFORO Nº630;COLISÃO COM CICLISTA;1;COM CICLISTA JA SOCORRIDO;Ciclista;-8.0456427;-34.9043906
26/06/2015;20:54;TORRE;RUA JOSE DE HOLANDA ;ENF A PRAÇA DA TORRE \;COLISÃO COM CICLISTA;1;ENTRE UM AUTO E UMA BICICLETA ;Ciclista;-8.0448726;-34.9098194
27/06/2015;08:54;CAMPO GRANDE;EST DE BELEM ;PROX AO GIRADOURO SITIO NOVO E/F A IGREJA BATISTA ;COLISÃO COM CICLISTA;1;COLISÃO COM 1 VITIMA SOCORRIDA PELO SAMU IC ENCONTRA SE JA NO LOCAL AGUARDANDO A EQUIPE DA CTTU;Ciclista;-8.0318615;-34.8755085
01/06/2015;10:30;IPSEP;RUA JEAN EMILE FAVRE ;COM RUA JAMAICA EM FRENTE À FBV;COLISÃO;1;RUA JEAN EMILE FAVRE C/ RUA JAMAICA;Ciclomotor;-8.1071227;-34.9149799
02/06/2015;21:30;ÁGUA FRIA;RUA DAS MOCAS ;E/F NUMERO 65;COLISÃO;1;COLIOSÃO ENTRE CINQUENTINHA - AUTO;Ciclomotor;-8.0260212;-34.8926908
06/06/2015;15:56;CORDEIRO;RUA CARLOS GOMES ;C/ CARLOS SALAZAR;COLISÃO;2;;Ciclomotor;-8.0579761;-34.9107528
12/06/2015;12:53;ARRUDA;RUA ZEFERINO AGRA 251;PROX DO COLÉGIO ADVENTISTA DO ARRUDA ;COLISÃO;1;COLISÃO DE AUTO E CINQUENTINHA ;Ciclomotor;-8.0215007;-34.8921704
17/06/2015;08:27;CAXANGÁ;AV CAXANGA ;ELEVADO CAXANGÁ;COLISÃO COM CICLISTA;1;COLISÃO ENTRE AUTO E CICLISTA;Ciclomotor;-8.0389501;-34.9417055
17/06/2015;19:20;ILHA DO RETIRO;AV ENGENHEIRO ABDIAS DE CARVALHO ;NO TUNEL CHICO SCIENCE;COLISÃO;1;COLISÃO ENTRE UM AUTO E UM CIQUENTINHA;Ciclomotor;-8.0619172;-34.9013972
22/06/2015;17:30;AFOGADOS;AV SUL ;NO SEMAFORO 260 ;COLISÃO;2;COLISÃO DE ONIBUS E CINQUENTINHA COM 2 VITIMA ;Ciclomotor;-8.0779414;-34.8977333
23/06/2013;16:56;TEJIPIÓ;AV DR JOSE RUFINO ;E/F AO QUARTEL DO EXERCITO- SENTIDO SUBÚRBIO;COLISÃO;1;1 CINQUENTINHA- 1AUTO;Ciclomotor;-8.090864;-34.9511582
17/06/2015;11:36;SANTO AMARO;RUA DR MARIO MELO FILHO ;EM FRENTE AO POSTO DISTRITO SANITARIO- OUTRO TELEFONE INFORMADO FOI:88935996;COLISÃO;1;COLISAO ENTRE AUTO E UMA CINQUENTINHA;Ciclomotor;-8.0541944;-34.8811895
01/06/2015;09:10;PINA;AV HERCULANO BANDEIRA ;EM FRENTE AO SEMÁFORO 137;COLISÃO;1;COLISÃO ENTRE AUTO E MOTO ;Motocicleta;-8.0887986;-34.8852731
01/06/2015;11:37;ILHA DO RETIRO;RUA JOAO ELISIO RAMOS ;ATRÁS DO SPORT CLUBE DO RECIFE;COLISÃO;1;COLISÃO COM VÍTIMA;Motocicleta;-8.0631123;-34.9048358
01/06/2015;18:41;IMBIRIBEIRA;AV MARECHAL MASCARENHAS DE MORAES ; ENFR AO AEROPORTO SENTIDO ESTRADA DA BATALHA;COLISÃO;1;;Motocicleta;-8.1314375;-34.9161923
02/06/2015;10:02;BOA VIAGEM;AV ENGENHEIRO DOMINGOS FERREIRA ;E/F AO RESTAURANTE DOM FERREIRA( SEMÁF217);COLISÃO;1;COM UMA VÍTIMA GM STEPHANE NO LOCAL.;Motocicleta;-8.1247196;-34.9002171
02/06/2015;10:48;BOA VISTA ;RUA PRINCESA IZABEL ;E/F AO HOSPITAL DO EXERCITO EM BAIXO DO SEMAFORO 031 ;COLISÃO ;1;COLISÃO COM 1 VITIMA A ESPERA DO BOMBEIRO ;Motocicleta;-8.0578433;-34.8830482
02/06/2015;15:01;CAMPO GRANDE;RUA PROFESSOR FRANCISCO DA TRINDADE ;DEPOIS DO MERCADO STILO 1º DIREITA COM A RUA SAO CAETANO ;COLISÃO;1; ;Motocicleta;-8.0350194;-34.8792073
03/06/2015;07:39;BOA VIAGEM ;RUA AZUL ;PROX AO SUPERMERCADO TREVO E/F AO N137;COLISÃO;1;COLISÃO SEM VITIMAS ;Motocicleta;-8.1328261;-34.9108211
03/06/2015;14:25;ÁGUA FRIA;RUA JULIO RAMOS ;NUMERO 31 A ENFRENTE A LOTERIA AXÉ;COLISÃO;1;COLISÃO AUTO E MOTO;Motocicleta;-8.0198408;-34.8943343
03/06/2015;17:26;COQUEIRAL;RUA DA CUSTODIA ;E/F MERCADO CUSTODIA E PX AO BAR DO FERNANDO ;ATROPELAMENTO;1;ATROPELAMENTO;Motocicleta;-8.0878785;-34.9673045
03/06/2015;18:03;BAIRRO DO RECIFE;C SANTA RITA ;ENFR A TORRE GEMIAS ;COLISÃO;1;ACIDENTE DE PERCURSO;Motocicleta;-8.0714325;-34.8770025
04/06/2015;11:30;BOA VIAGEM;AV BOA VIAGEM ;PROX SEMAFORO 120;COLISÃO;1;VITIMA AGUARDANDO SOCORRO;Motocicleta;-8.1219369;-34.8960114
04/06/2015;16:26;JARDIM SÃO PAULO;AV LIBERDADE 678;E/F A CASA DO BREGA;COLISÃO;1;COLISAO ENTRE AUTO E MOTO;Motocicleta;-8.0851061;-34.9550843
04/06/2015;21:37;BONGI;RUA DONA MARIA AUGUSTA NOGUEIRA ;PROX ASSEMBLEIA DE DEUS;COLISÃO;1;VIATURA PM - MOTOCICLETA;Motocicleta;-8.0643419;-34.9221709
05/06/2012;08:09;BOA VIAGEM;AV BOA VIAGEM 1756;NO SEGUNDO JARDIM -SEMAFORO Nº003- ED PUERTO;COLISÃO;1;MOTO E AUTO;Motocicleta;-8.1050435;-34.8868757
05/06/2015;12:05;TORRE;AV BEIRA RIO ;PRAÇA DOMINGOS GIOVANETE;COLISÃO;1;COLISÃO ENTRE AUTO E MOTO;Motocicleta;-8.0472309;-34.904184
05/06/2015;12:02;AREIAS;AV RECIFE 3078;EM FRENTE A SAO PAULO VEICULOS-SENTIDO AEROPORTO;COLISÃO;1;COLISAO COM VITIMA;Motocicleta;-8.1038034;-34.9275783
05/06/2015;15:08;BOA VISTA;AV CONDE DA BOA VISTA ;E/F À CORREGEDORIA SDS;COLISÃO;1;COLISÃO ENTRE AUTO E MOTO;Motocicleta;-8.0602069;-34.885186
05/06/2015;15:09;SAN MARTIN;AV GENERAL SAN MARTIN ;E/F A ESCOLA DOM BOSCO ;COLISÃO;1;COLISAO ENTRE AUTO E MOTO;Motocicleta;-8.0613861;-34.9260521
05/06/2015;17:14;CAMPINA DO BARRETO;RUA DAS MOCAS ;FINAL DO CANAL- ANTIGO PASSA E FICA E ESQUINA BURGUER- SENTIDO FUNDÃO.;COLISÃO;1;1 AUTO E 1 MOTO;Motocicleta;-8.0196655;-34.8855413
05/06/2015;18:04;CASA AMARELA;RUA BELA VISTA 152;SÍTIO DA TRINDADE;COLISÃO;1;COLISÃO ENTRE AUTO E MOTO COM VÍTIMA;Motocicleta;-8.0268153;-34.9118257
05/06/2015;21:11;BOA VIAGEM;RUA DEZ DE JULHO ;PROX AO PONTINHÃO DO METRO PIZZARIA ESQUINA DEZ ;COLISÃO;2;COLISÃO;Motocicleta;-8.1345706;-34.9144757
06/06/2015;10:57;MACAXEIRA;AV NORTE ;APOS A ACADEMIA DA CIDADE/SENTIDO CIDADE E-F AO N7205;COLISÃO;2;COLISÃO COM 2 VITIMAS ;Motocicleta;-8.0161277;-34.9304911
06/06/2015;20:05;NOVA DESCOBERTA;RUA NOVA DESCOBERTA ;PROX LARGO DONA REGINA E/F N 4436;COLISÃO;1;COLISÃO ENTRE AUTO-MOTOCICLETA;Motocicleta;-8.0184835;-34.9260333
06/06/2015;21:23;AFOGADOS;RUA VINTE E UM DE ABRIL XX;PROX AO CAFE PETINHO ;COLISÃO;1;AUTO E MOTO O PROPIETARIO DO AUTO SE EVADIU ;Motocicleta;-8.0756469;-34.9158436
07/06/2015;18:09;TAMARINEIRA;AV NORTE ;PROX MOTEL VIA NORTE E VILA COMERCIARIA ;COLISÃO;1;COLISÃO COM VITIMA O MESMO ESTA ALCOOLISADO POLICIA NO LOCAL;Motocicleta;-8.0272509;-34.9039453
08/06/2015;09:03;SANTO ANTÔNIO;RUA FLORIANO PEIXOTO ;EM FRENTE DA CASA DA CULTURA;COLISÃO;1;COLVT;Motocicleta;-8.0664212;-34.8826352
08/06/2015;12:17;BOA VIAGEM;AV BOA VIAGEM ;2º JARDIM;COLISÃO;1; ;Motocicleta;-8.1054206;-34.8870689
08/06/2015;18:22;SÃO JOSÉ;AV SUL ;ENF AO FORTE CINCO PONTAS EMBAIXO DO VIADUTO SENT AO CAIS SANTA RITA ;COLISÃO;1;COLISÃO ENTRE ONIBUS E UMA MOTO ;Motocicleta;-8.0724336;-34.8808354
08/06/2015;19:36;BOA VIAGEM;AV CONSELHEIRO AGUIAR ;CRUZ COM A RUA PEREIRA DA COSTA ;COLISÃO;1;COLISÃO ;Motocicleta;-8.095537;-34.8846549
08/06/2015;22:45;PINA;AV ENGENHEIRO DOMINGOS FERREIRA ;DE ESQ COM BOM PREÇO DO PINA ;COLISÃO;1; ;Motocicleta;-8.1019048;-34.8881096
09/06/2015;07:47;BOA VIAGEM;AV BOA VIAGEM 1870;EDF/COMENDADOR PEDRO RENDA;COLISÃO;1;COLC/B;Motocicleta;-8.1072581;-34.8879325
09/06/2015;08:54;SANTO AMARO;AV GOVERNADOR AGAMENON MAGALHAES ;EM FRENTE A UPE NO SENTIDO BOA VIAGEM/OLINDA;COLISÃO;1;COLISÃO ENTRE AUTO X MOTO ;Motocicleta;-8.0433003;-34.8869348
09/06/2015;09:13;SANTO AMARO;AV CRUZ CABUGA ;SENTIDO CENTRO- EM FRENTE HOSPITAL NAVAL;COLISÃO;1;COLISAO COM VITIMA;Motocicleta;-8.045409;-34.8754723
09/06/2015;14:25;BAIRRO DO RECIFE;CAIS DO APOLO ;ROTATÓRIA;COLISÃO;1;COLISÃO ENTRE MOTOCICLETAS;Motocicleta;-8.0519104;-34.871791
09/06/2015;14:58;IPUTINGA;RUA LEAL DE BARROS X;E/F DO COLEGIO EXPOENTE ;COLISÃO;1;COLISÃO DE MOT E AUTO COM VITIMA ;Motocicleta;-8.0331523;-34.9306762
09/06/2015;19:07;BOA VIAGEM;RUA TOME GIBSON ;EM FRENTE A ESCOLA MUNICIPAL OSVALDO LIMA FILHO;COLISÃO;1;COLISÃO ENTRE UM AUTO E UMA MOTO;Motocicleta;-8.0988138;-34.8867229
09/06/2015;21:03;BOA VISTA;RUA DR JOSE MARIANO 817;PROX A COMPESA NA DECIDA DA PONTE ;COLISÃO;1;COLISÃO COM VITIMA ;Motocicleta;-8.065444;-34.8868811
09/06/2015;22:33;PINA;RUA MANGUITO ;BEM NA FRENTE DA VIA MANGUE ;COLISÃO;1;COLISÃO COM VITIMA COM SUSPEITA DE EMBRIAGUZ;Motocicleta;-8.0863861;-34.8936939
09/06/2015;22:44;SANTO AMARO;AV CRUZ CABUGA ;CRUZAMENTO COM A JAIME DA FONTE ;COLISÃO;1;AUTO E MOTO ;Motocicleta;-8.0446415;-34.8749802
10/06/2015;09:09;BOA VISTA;RUA JOAO FERNANDES VIEIRA 288;POR TRÁS DA CELPE- E/F AO EDF STª MÔNICA ;COLISÃO;1;COM VÍTIMA.;Motocicleta;-8.0539155;-34.8916447
10/06/2015;10:14;IPUTINGA;RUA GASPAR PEREZ ;POR TRAS DA PRAÇA DA SUDENE E/F A GALERIA CIDADE UNIVERSITARIA ;COLISÃO ;1;COLISÃO SEM VITIMAS ;Motocicleta;-8.0482401;-34.9434918
10/06/2015;21:37;FUNDÃO;AV BEBERIBE 2741;PROX AO COLEGIO 90º;COLISÃO;1;COLISÃO AUTO E MOTO;Motocicleta;-8.0147598;-34.8900005
11/06/2015;12:05;IMBIRIBEIRA;AV MARECHAL MASCARENHAS DE MORAES ;EM FRENTE À PRAÇA MINSALGADO FILHO;ATROPELAMENTO;2;COLISÃO ENTRE DUAS MOTOS;Motocicleta;-8.1334289;-34.9165678
11/06/2015;14:07;CAMPO GRANDE;RUA ODORICO MENDES 528;PROX AO SUPERMERCADO STILLUS;COLISÃO;1; ;Motocicleta;-8.0369635;-34.8799825
11/06/2015;18:55;ILHA DO RETIRO;RUA JOAO ELISIO RAMOS ;AO LADO DO CANAL DO SPORT;COLISÃO;2;COLISAO ENTRE AUTO E MOTO;Motocicleta;-8.0619863;-34.904986
11/06/2015;19:12;BOMBA DO HEMETÉRIO;RUA ARLINDO CISNEIRO 227;;ATROPELAMENTO;1;ATROPELAMENTO DE PEDESTRE;Motocicleta;-8.0201462;-34.9066114
11/06/2015;19:27;ESTÂNCIA;AV TAPAJOS 135;ENFR POSTO BR ;COLISÃO;1;AUTO E MOTO COLM VITIMA ;Motocicleta;-8.09149;-34.9278653
11/06/2015;21:44;CAXANGÁ;AV CAXANGA 5735;ENFR A ENTEGREAÇÃO DA CAXANGA ;COLISÃO;1;MOTO E AUTO ;Motocicleta;-8.0322041;-34.9541938
12/06/2015;00:38;BAIRRO DO RECIFE;AV ALFREDO LISBOA ;PROX AO MUSEU DO BRUM;CHOQUE;1;CHOQUE DE UMA MOTOCICLETA CONTRA UM MURO;Motocicleta;-8.0540934;-34.8708925
30/12/1899;09:07;CAXANGÁ;RUA RIBEIRO PESSOA ;EM FRENTE AO HOTEL PARAISO;COLISÃO;2;COLISÃO COM VÍTIMA ENTRE DUAS MOTOS- UMA MOTO DESAPARECEU DO LOCAL E A OUTRA É UMA SHINERAY 50 CC;Motocicleta;-8.0256812;-34.9567151
12/06/2015;10:20;SAN MARTIN;RUA JOSE VELOSO ;DE ESQUINA COM A CAVALARIA;COLISÃO;1;SEM VÍTIMAS VT 36 NO LOCAL;Motocicleta;-8.065768;-34.9271733
11/06/2015;01:33;AFOGADOS;RUA SAO MIGUEL ;E/F AO DEPATRI;COLISÃO;F;AUTO R MOTO;Motocicleta;-8.0802836;-34.9086714
11/06/2015;06:30;IPSEP;AV RECIFE ;SEMÁFORO 016;COLISÃO;F;COLISÃO ENTRE AUTO X MOTO ;Motocicleta;-8.1071147;-34.9270821
11/06/2015;13:03;ENCRUZILHADA;AV BEBERIBE 247;AO LADO DA ACADEMIA VIA FORMA ;COLISÃO;1;COLISÃO DE MOTO E AUTO COM VITIMA ;Motocicleta;-8.034621;-34.8915482
11/06/2015;13:08;ENCRUZILHADA;AV BEBERIBE 247;AO LADO DA CADEMIA VIA FORMA ;COLISÃO;1;COLISÃO DE MOTO E AUTO COM UAM VITIMA ;Motocicleta;-8.0348387;-34.8915213
12/06/2015;12:19;PINA;AV ANTONIO DE GOES ;EM FRENTE AO BANDO DO BRASIL- FAIXA DA ESDQUERDA;COLISÃO;1;COLISÃO COM VÍTIMA ENTRE UM ONIBUS E UMA MOTO- LOCAL PRESERVADO;Motocicleta;-8.0860568;-34.885937
12/06/2015;20:53;CORDEIRO;AV INACIO MONTEIRO ;PX A PIZZARIA PARAISO ;COLISÃO;2;COLISAO ENTRE MOTO E DOIS AUTOS;Motocicleta;-8.0486969;-34.9316767
12/06/2015;21:35;PAISSANDU;AV GOVERNADOR AGAMENON MAGALHAES ;PX AO BANCO ITAU;COLISÃO;1;COLISAO ENTRE MOTO E TRES AUTOS ;Motocicleta;-8.062119;-34.8974302
13/06/2015;07:37;HIPÓDROMO;EST DE BELEM 672;EM FRENTE A FARMACIA CIDADE;COLISÃO;1;COLISÃO ENTRE UMA MOTOCICLETA E UAM KOBI;Motocicleta;-8.0338747;-34.885831
